$GPGGA,210131.000,4353.2872,N,07917.9775,W,1,07,1.20,204.1,M,-35.3,M,,*5F
$GPGSA,A,3,11,07,16,30,08,27,01,,,,,,1.50,1.20,0.90*03
$GPRMC,210131.000,A,4353.2872,N,07917.9775,W,0.88,49.51,240416,,,A*4A
$GPVTG,49.51,T,,M,0.88,N,1.63,K,A*00
$GPGGA,210132.000,4353.2869,N,07917.9772,W,1,06,1.30,204.2,M,-35.3,M,,*52
$GPGSA,A,3,07,16,30,08,27,01,,,,,,,1.58,1.30,0.91*0B
$GPRMC,210132.000,A,4353.2869,N,07917.9772,W,0.26,117.29,240416,,,A*75
$GPVTG,117.29,T,,M,0.26,N,0.49,K,A*38
$GPGGA,210133.000,4353.2866,N,07917.9770,W,1,06,1.30,204.2,M,-35.3,M,,*5E
$GPGSA,A,3,07,16,30,08,27,01,,,,,,,1.58,1.30,0.91*0B
$GPGSV,3,1,12,07,79,268,24,08,68,061,29,30,50,305,27,11,42,158,*7E
$GPGSV,3,2,12,27,34,050,22,28,22,277,,09,19,211,,01,18,157,23*7D
$GPGSV,3,3,12,16,10,083,22,13,07,329,22,23,02,187,,49,,,*4A
$GPRMC,210133.000,A,4353.2866,N,07917.9770,W,0.16,198.01,240416,,,A*77
$GPVTG,198.01,T,,M,0.16,N,0.30,K,A*38
$GPGGA,210134.000,4353.2864,N,07917.9769,W,1,06,1.30,204.2,M,-35.3,M,,*53
$GPGSA,A,3,07,16,30,08,27,01,,,,,,,1.58,1.30,0.91*0B
$GPRMC,210134.000,A,4353.2864,N,07917.9769,W,0.07,148.70,240416,,,A*71
$GPVTG,148.70,T,,M,0.07,N,0.12,K,A*33
$GPGGA,210135.000,4353.2862,N,07917.9767,W,1,06,1.30,204.2,M,-35.3,M,,*5A
$GPGSA,A,3,07,16,30,08,27,01,,,,,,,1.58,1.30,0.91*0B
$GPRMC,210135.000,A,4353.2862,N,07917.9767,W,0.43,171.65,240416,,,A*76
$GPVTG,171.65,T,,M,0.43,N,0.79,K,A*30
$GPGGA,210136.000,4353.2861,N,07917.9766,W,1,06,1.30,204.2,M,-35.3,M,,*5B
$GPGSA,A,3,07,16,30,08,27,01,,,,,,,1.58,1.30,0.91*0B
$GPRMC,210136.000,A,4353.2861,N,07917.9766,W,0.82,200.07,240416,,,A*7B
$GPVTG,200.07,T,,M,0.82,N,1.52,K,A*34
$GPGGA,210137.000,4353.2859,N,07917.9766,W,1,06,1.30,204.3,M,-35.3,M,,*50
$GPGSA,A,3,07,16,30,08,27,01,,,,,,,1.58,1.30,0.91*0B
$GPRMC,210137.000,A,4353.2859,N,07917.9766,W,0.58,232.46,240416,,,A*72
$GPVTG,232.46,T,,M,0.58,N,1.07,K,A*37
$GPGGA,210138.000,4353.2858,N,07917.9764,W,1,06,1.30,204.3,M,-35.3,M,,*5C
$GPGSA,A,3,07,16,30,08,27,01,,,,,,,1.58,1.30,0.91*0B
$GPGSV,3,1,12,07,79,268,24,08,68,061,30,30,51,305,27,11,42,158,*77
$GPGSV,3,2,12,27,34,050,23,51,32,217,,28,22,277,,09,19,211,*77
$GPGSV,3,3,12,01,18,157,23,16,10,083,21,13,07,329,21,23,02,187,*7D
$GPRMC,210138.000,A,4353.2858,N,07917.9764,W,0.15,291.72,240416,,,A*79
$GPVTG,291.72,T,,M,0.15,N,0.27,K,A*33
$GPGGA,210139.000,4353.2857,N,07917.9762,W,1,07,1.20,204.4,M,-35.3,M,,*53
$GPGSA,A,3,11,07,16,30,08,27,01,,,,,,1.50,1.20,0.90*03
$GPRMC,210139.000,A,4353.2857,N,07917.9762,W,0.16,319.62,240416,,,A*72
$GPVTG,319.62,T,,M,0.16,N,0.30,K,A*36
$GPGGA,210140.000,4353.2856,N,07917.9759,W,1,06,1.30,204.5,M,-35.3,M,,*55
$GPGSA,A,3,07,16,30,08,27,01,,,,,,,1.58,1.30,0.91*0B
$GPRMC,210140.000,A,4353.2856,N,07917.9759,W,0.17,85.45,240416,,,A*47
$GPVTG,85.45,T,,M,0.17,N,0.31,K,A*05
$GPGGA,210141.000,4353.2856,N,07917.9758,W,1,06,1.30,204.5,M,-35.3,M,,*55
$GPGSA,A,3,07,16,30,08,27,01,,,,,,,1.58,1.30,0.91*0B
$GPRMC,210141.000,A,4353.2856,N,07917.9758,W,0.20,153.81,240416,,,A*71
$GPVTG,153.81,T,,M,0.20,N,0.37,K,A*35
$GPGGA,210142.000,4353.2855,N,07917.9758,W,1,06,1.30,204.5,M,-35.3,M,,*55
$GPGSA,A,3,07,16,30,08,27,01,,,,,,,1.58,1.30,0.91*0B
$GPRMC,210142.000,A,4353.2855,N,07917.9758,W,0.36,173.63,240416,,,A*78
$GPVTG,173.63,T,,M,0.36,N,0.67,K,A*39
$GPGGA,210143.000,4353.2854,N,07917.9758,W,1,06,1.30,204.5,M,-35.3,M,,*55
$GPGSA,A,3,07,16,30,08,27,01,,,,,,,1.58,1.30,0.91*0B
$GPGSV,3,1,12,07,79,268,24,08,68,061,30,30,51,305,28,11,42,158,*78
$GPGSV,3,2,12,27,34,050,24,51,32,217,,28,22,277,,09,19,211,*70
$GPGSV,3,3,12,01,19,157,21,16,10,083,21,13,07,329,22,23,02,187,*7D
$GPRMC,210143.000,A,4353.2854,N,07917.9758,W,0.54,221.99,240416,,,A*7D
$GPVTG,221.99,T,,M,0.54,N,1.00,K,A*3C
$GPGGA,210144.000,4353.2853,N,07917.9759,W,1,06,1.30,204.5,M,-35.3,M,,*54
$GPGSA,A,3,07,16,30,08,27,01,,,,,,,1.58,1.30,0.91*0B
$GPRMC,210144.000,A,4353.2853,N,07917.9759,W,0.47,296.03,240416,,,A*71
$GPVTG,296.03,T,,M,0.47,N,0.88,K,A*30
$GPGGA,210145.000,4353.2854,N,07917.9761,W,1,06,1.30,204.5,M,-35.3,M,,*59
$GPGSA,A,3,07,16,30,08,27,01,,,,,,,1.58,1.30,0.91*0B
$GPRMC,210145.000,A,4353.2854,N,07917.9761,W,0.27,353.17,240416,,,A*77
$GPVTG,353.17,T,,M,0.27,N,0.50,K,A*3E
$GPGGA,210146.000,4353.2854,N,07917.9761,W,1,07,1.44,204.5,M,-35.3,M,,*58
$GPGSA,A,3,11,07,16,30,08,27,01,,,,,,2.49,1.44,2.03*02
$GPRMC,210146.000,A,4353.2854,N,07917.9761,W,0.21,346.50,240416,,,A*75
$GPVTG,346.50,T,,M,0.21,N,0.39,K,A*30
$GPGGA,210147.000,4353.2855,N,07917.9761,W,1,07,1.44,204.5,M,-35.3,M,,*58
$GPGSA,A,3,11,07,16,30,08,27,01,,,,,,2.49,1.44,2.03*02
$GPRMC,210147.000,A,4353.2855,N,07917.9761,W,0.37,355.97,240416,,,A*7B
$GPVTG,355.97,T,,M,0.37,N,0.69,K,A*3B
$GPGGA,210148.000,4353.2856,N,07917.9761,W,1,07,1.44,204.5,M,-35.3,M,,*54
$GPGSA,A,3,11,07,16,30,08,27,01,,,,,,2.49,1.44,2.03*02
$GPGSV,3,1,12,07,80,267,24,08,68,061,30,30,51,305,28,11,42,158,20*73
$GPGSV,3,2,12,27,34,050,25,28,22,277,,09,19,211,,01,19,157,22*7A
$GPGSV,3,3,12,48,16,243,,16,10,083,21,13,07,329,22,23,02,187,*7A
$GPRMC,210148.000,A,4353.2856,N,07917.9761,W,0.80,352.28,240416,,,A*78
$GPVTG,352.28,T,,M,0.80,N,1.49,K,A*37
$GPGGA,210149.000,4353.2853,N,07917.9755,W,1,07,1.44,204.9,M,-35.3,M,,*5B
$GPGSA,A,3,11,07,16,30,08,27,01,,,,,,2.49,1.44,2.03*02
$GPRMC,210149.000,A,4353.2853,N,07917.9755,W,0.36,347.33,240416,,,A*78
$GPVTG,347.33,T,,M,0.36,N,0.67,K,A*39
$GPGGA,210150.000,4353.2853,N,07917.9751,W,1,07,1.44,204.9,M,-35.3,M,,*57
$GPGSA,A,3,11,07,16,30,08,27,01,,,,,,2.49,1.44,2.03*02
$GPRMC,210150.000,A,4353.2853,N,07917.9751,W,0.32,140.81,240416,,,A*7C
$GPVTG,140.81,T,,M,0.32,N,0.60,K,A*36
$GPGGA,210151.000,4353.2850,N,07917.9748,W,1,07,1.20,205.0,M,-35.3,M,,*57
$GPGSA,A,3,11,07,16,30,08,27,01,,,,,,1.50,1.20,0.90*03
$GPRMC,210151.000,A,4353.2850,N,07917.9748,W,0.97,171.60,240416,,,A*74
$GPVTG,171.60,T,,M,0.97,N,1.79,K,A*3D
$GPGGA,210152.000,4353.2847,N,07917.9742,W,1,07,1.20,205.1,M,-35.3,M,,*59
$GPGSA,A,3,11,07,16,30,08,27,01,,,,,,1.50,1.20,0.90*03
$GPRMC,210152.000,A,4353.2847,N,07917.9742,W,1.27,143.06,240416,,,A*70
$GPVTG,143.06,T,,M,1.27,N,2.35,K,A*3D
$GPGGA,210153.000,4353.2846,N,07917.9738,W,1,07,1.20,205.2,M,-35.3,M,,*57
$GPGSA,A,3,11,07,16,30,08,27,01,,,,,,1.50,1.20,0.90*03
$GPGSV,3,1,12,07,80,267,25,08,68,060,30,30,51,305,29,11,43,158,22*71
$GPGSV,3,2,12,27,34,050,26,28,22,277,,09,19,211,,01,19,157,21*7A
$GPGSV,3,3,12,16,10,083,21,33,09,108,,13,07,329,22,23,02,187,*74
$GPRMC,210153.000,A,4353.2846,N,07917.9738,W,0.42,187.55,240416,,,A*71
$GPVTG,187.55,T,,M,0.42,N,0.79,K,A*3B
$GPGGA,210154.000,4353.2845,N,07917.9735,W,1,07,1.20,205.4,M,-35.3,M,,*58
$GPGSA,A,3,11,07,16,30,08,27,01,,,,,,1.50,1.20,0.90*03
$GPRMC,210154.000,A,4353.2845,N,07917.9735,W,0.61,310.01,240416,,,A*74
$GPVTG,310.01,T,,M,0.61,N,1.13,K,A*3A
$GPGGA,210155.000,4353.2845,N,07917.9737,W,1,06,1.30,205.4,M,-35.3,M,,*5B
$GPGSA,A,3,07,16,30,08,27,01,,,,,,,1.58,1.30,0.91*0B
$GPRMC,210155.000,A,4353.2845,N,07917.9737,W,0.66,298.43,240416,,,A*77
$GPVTG,298.43,T,,M,0.66,N,1.22,K,A*38
$GPGGA,210156.000,4353.2845,N,07917.9736,W,1,06,1.30,205.5,M,-35.3,M,,*58
$GPGSA,A,3,07,16,30,08,27,01,,,,,,,1.59,1.30,0.91*0A
$GPRMC,210156.000,A,4353.2845,N,07917.9736,W,0.27,275.23,240416,,,A*75
$GPVTG,275.23,T,,M,0.27,N,0.50,K,A*3C
$GPGGA,210157.000,4353.2844,N,07917.9733,W,1,06,1.30,205.6,M,-35.3,M,,*5E
$GPGSA,A,3,07,16,30,08,27,01,,,,,,,1.59,1.30,0.91*0A
$GPRMC,210157.000,A,4353.2844,N,07917.9733,W,0.31,77.34,240416,,,A*41
$GPVTG,77.34,T,,M,0.31,N,0.57,K,A*0A
$GPGGA,210158.000,4353.2843,N,07917.9734,W,1,06,1.30,205.6,M,-35.3,M,,*51
$GPGSA,A,3,07,16,30,08,27,01,,,,,,,1.58,1.30,0.91*0B
$GPGSV,3,1,12,07,80,267,25,08,68,060,30,30,51,305,29,11,43,158,*71
$GPGSV,3,2,12,27,34,050,26,28,22,277,,09,19,211,,01,19,157,21*7A
$GPGSV,3,3,12,16,10,083,21,33,09,108,,13,07,329,22,23,02,187,*74
$GPRMC,210158.000,A,4353.2843,N,07917.9734,W,0.32,334.06,240416,,,A*78
$GPVTG,334.06,T,,M,0.32,N,0.59,K,A*32
$GPGGA,210159.000,4353.2841,N,07917.9733,W,1,06,1.30,205.6,M,-35.3,M,,*55
$GPGSA,A,3,07,16,30,08,27,01,,,,,,,1.59,1.30,0.91*0A
$GPRMC,210159.000,A,4353.2841,N,07917.9733,W,0.08,51.53,240416,,,A*45
$GPVTG,51.53,T,,M,0.08,N,0.15,K,A*03
$GPGGA,210200.000,4353.2841,N,07917.9733,W,1,06,1.30,205.7,M,-35.3,M,,*5B
$GPGSA,A,3,07,16,30,08,27,01,,,,,,,1.59,1.30,0.91*0A
$GPRMC,210200.000,A,4353.2841,N,07917.9733,W,0.43,33.74,240416,,,A*44
$GPVTG,33.74,T,,M,0.43,N,0.79,K,A*07
$GPGGA,210201.000,4353.2842,N,07917.9732,W,1,06,1.30,205.7,M,-35.3,M,,*58
$GPGSA,A,3,07,16,30,08,27,01,,,,,,,1.58,1.30,0.91*0B
$GPRMC,210201.000,A,4353.2842,N,07917.9732,W,0.71,40.34,240416,,,A*46
$GPVTG,40.34,T,,M,0.71,N,1.31,K,A*0B
$GPGGA,210202.000,4353.2843,N,07917.9730,W,1,06,1.30,205.8,M,-35.3,M,,*57
$GPGSA,A,3,07,16,30,08,27,01,,,,,,,1.59,1.30,0.91*0A
$GPRMC,210202.000,A,4353.2843,N,07917.9730,W,0.61,54.49,240416,,,A*48
$GPVTG,54.49,T,,M,0.61,N,1.12,K,A*04
$GPGGA,210203.000,4353.2843,N,07917.9730,W,1,06,1.30,205.8,M,-35.3,M,,*56
$GPGSA,A,3,07,16,30,08,27,01,,,,,,,1.59,1.30,0.91*0A
$GPGSV,3,1,12,07,80,267,26,08,68,060,30,30,51,305,29,11,43,158,*72
$GPGSV,3,2,12,27,34,050,26,28,22,277,,09,19,211,,01,19,157,22*79
$GPGSV,3,3,12,16,10,083,20,13,07,329,22,23,02,187,,34,,,*42
$GPRMC,210203.000,A,4353.2843,N,07917.9730,W,0.23,326.89,240416,,,A*75
$GPVTG,326.89,T,,M,0.23,N,0.42,K,A*3C
$GPGGA,210204.000,4353.2843,N,07917.9729,W,1,06,1.30,205.8,M,-35.3,M,,*59
$GPGSA,A,3,07,16,30,08,27,01,,,,,,,1.59,1.30,0.91*0A
$GPRMC,210204.000,A,4353.2843,N,07917.9729,W,0.57,8.79,240416,,,A*79
$GPVTG,8.79,T,,M,0.57,N,1.05,K,A*3D
$GPGGA,210205.000,4353.2843,N,07917.9731,W,1,06,1.59,205.8,M,-35.3,M,,*5E
$GPGSA,A,3,07,16,30,08,27,01,,,,,,,2.68,1.59,2.16*09
$GPRMC,210205.000,A,4353.2843,N,07917.9731,W,0.79,327.23,240416,,,A*7C
$GPVTG,327.23,T,,M,0.79,N,1.46,K,A*37
$GPGGA,210206.000,4353.2842,N,07917.9732,W,1,06,1.30,205.9,M,-35.3,M,,*51
$GPGSA,A,3,07,16,30,08,27,01,,,,,,,1.59,1.30,0.91*0A
$GPRMC,210206.000,A,4353.2842,N,07917.9732,W,0.21,341.05,240416,,,A*74
$GPVTG,341.05,T,,M,0.21,N,0.39,K,A*37
$GPGGA,210207.000,4353.2841,N,07917.9732,W,1,06,1.30,205.9,M,-35.3,M,,*53
$GPGSA,A,3,07,16,30,08,27,01,,,,,,,1.59,1.30,0.91*0A
$GPRMC,210207.000,A,4353.2841,N,07917.9732,W,0.47,25.26,240416,,,A*46
$GPVTG,25.26,T,,M,0.47,N,0.87,K,A*02
$GPGGA,210208.000,4353.2839,N,07917.9734,W,1,06,1.30,205.9,M,-35.3,M,,*55
$GPGSA,A,3,07,16,30,08,27,01,,,,,,,1.59,1.30,0.91*0A
$GPGSV,3,1,12,07,80,267,25,08,68,060,30,30,51,305,28,11,43,158,*70
$GPGSV,3,2,12,27,34,050,25,28,22,277,,09,19,211,,01,19,157,22*7A
$GPGSV,3,3,12,16,10,083,20,13,07,329,20,23,01,187,,34,,,*43
$GPRMC,210208.000,A,4353.2839,N,07917.9734,W,0.15,274.43,240416,,,A*72
$GPVTG,274.43,T,,M,0.15,N,0.28,K,A*35
$GPGGA,210209.000,4353.2836,N,07917.9734,W,1,06,1.30,205.9,M,-35.3,M,,*5B
$GPGSA,A,3,07,16,30,08,27,01,,,,,,,1.59,1.30,0.91*0A
$GPRMC,210209.000,A,4353.2836,N,07917.9734,W,0.43,167.79,240416,,,A*77
$GPVTG,167.79,T,,M,0.43,N,0.79,K,A*3A
$GPGGA,210210.000,4353.2835,N,07917.9734,W,1,06,1.30,205.9,M,-35.3,M,,*50
$GPGSA,A,3,07,16,30,08,27,01,,,,,,,1.59,1.30,0.91*0A
$GPRMC,210210.000,A,4353.2835,N,07917.9734,W,0.52,261.97,240416,,,A*79
$GPVTG,261.97,T,,M,0.52,N,0.97,K,A*3F
$GPGGA,210211.000,4353.2835,N,07917.9736,W,1,07,1.20,205.9,M,-35.3,M,,*53
$GPGSA,A,3,11,07,16,30,08,27,01,,,,,,1.50,1.20,0.90*03
$GPRMC,210211.000,A,4353.2835,N,07917.9736,W,0.25,135.37,240416,,,A*72
$GPVTG,135.37,T,,M,0.25,N,0.46,K,A*3B
$GPGGA,210212.000,4353.2834,N,07917.9735,W,1,07,1.20,205.9,M,-35.3,M,,*52
$GPGSA,A,3,11,07,16,30,08,27,01,,,,,,1.50,1.20,0.90*03
$GPRMC,210212.000,A,4353.2834,N,07917.9735,W,0.55,203.25,240416,,,A*71
$GPVTG,203.25,T,,M,0.55,N,1.02,K,A*38
$GPGGA,210213.000,4353.2833,N,07917.9736,W,1,07,1.20,205.9,M,-35.3,M,,*57
$GPGSA,A,3,11,07,16,30,08,27,01,,,,,,1.50,1.20,0.90*03
$GPGSV,3,1,12,07,80,267,26,08,68,060,31,30,51,305,27,11,43,158,19*75
$GPGSV,3,2,12,27,34,050,25,28,22,278,,09,19,211,,01,19,157,22*75
$GPGSV,3,3,12,16,10,083,20,13,07,329,22,23,01,187,,35,,,*40
$GPRMC,210213.000,A,4353.2833,N,07917.9736,W,0.12,110.45,240416,,,A*70
$GPVTG,110.45,T,,M,0.12,N,0.22,K,A*3F
$GPGGA,210214.000,4353.2833,N,07917.9736,W,1,07,1.20,205.9,M,-35.3,M,,*50
$GPGSA,A,3,11,07,16,30,08,27,01,,,,,,1.50,1.20,0.90*03
$GPRMC,210214.000,A,4353.2833,N,07917.9736,W,0.17,235.78,240416,,,A*78
$GPVTG,235.78,T,,M,0.17,N,0.32,K,A*31
$GPGGA,210215.000,4353.2833,N,07917.9736,W,1,07,1.20,205.9,M,-35.3,M,,*51
$GPGSA,A,3,11,07,16,30,08,27,01,,,,,,1.50,1.20,0.90*03
$GPRMC,210215.000,A,4353.2833,N,07917.9736,W,0.19,316.50,240416,,,A*7D
$GPVTG,316.50,T,,M,0.19,N,0.34,K,A*33
$GPGGA,210216.000,4353.2833,N,07917.9737,W,1,07,1.20,205.9,M,-35.3,M,,*53
$GPGSA,A,3,11,07,16,30,08,27,01,,,,,,1.50,1.20,0.90*03
$GPRMC,210216.000,A,4353.2833,N,07917.9737,W,0.43,249.21,240416,,,A*7D
$GPVTG,249.21,T,,M,0.43,N,0.79,K,A*38
$GPGGA,210217.000,4353.2832,N,07917.9738,W,1,06,1.30,205.9,M,-35.3,M,,*5C
$GPGSA,A,3,07,16,30,08,27,01,,,,,,,1.59,1.30,0.91*0A
$GPRMC,210217.000,A,4353.2832,N,07917.9738,W,0.56,230.43,240416,,,A*7C
$GPVTG,230.43,T,,M,0.56,N,1.04,K,A*3D
$GPGGA,210218.000,4353.2832,N,07917.9740,W,1,06,1.30,205.9,M,-35.3,M,,*5C
$GPGSA,A,3,07,16,30,08,27,01,,,,,,,1.59,1.30,0.91*0A
$GPGSV,3,1,12,07,80,267,26,08,68,060,31,30,51,305,26,11,43,158,*7C
$GPGSV,3,2,12,27,34,050,24,28,22,278,,09,19,211,,01,19,157,22*74
$GPGSV,3,3,12,16,10,083,19,13,07,329,21,23,01,187,,36,,,*4A
$GPRMC,210218.000,A,4353.2832,N,07917.9740,W,0.31,239.79,240416,,,A*7D
$GPVTG,239.79,T,,M,0.31,N,0.58,K,A*34
$GPGGA,210219.000,4353.2831,N,07917.9741,W,1,06,1.30,205.9,M,-35.3,M,,*5F
$GPGSA,A,3,07,16,30,08,27,01,,,,,,,1.59,1.30,0.91*0A
$GPRMC,210219.000,A,4353.2831,N,07917.9741,W,0.20,213.03,240416,,,A*7B
$GPVTG,213.03,T,,M,0.20,N,0.38,K,A*37
$GPGGA,210220.000,4353.2831,N,07917.9742,W,1,06,1.30,205.9,M,-35.3,M,,*56
$GPGSA,A,3,07,16,30,08,27,01,,,,,,,1.59,1.30,0.91*0A
$GPRMC,210220.000,A,4353.2831,N,07917.9742,W,0.18,255.44,240416,,,A*78
$GPVTG,255.44,T,,M,0.18,N,0.34,K,A*31
$GPGGA,210221.000,4353.2830,N,07917.9742,W,1,06,1.30,205.9,M,-35.3,M,,*56
$GPGSA,A,3,07,16,30,08,27,01,,,,,,,1.59,1.30,0.91*0A
$GPRMC,210221.000,A,4353.2830,N,07917.9742,W,0.69,269.90,240416,,,A*78
$GPVTG,269.90,T,,M,0.69,N,1.27,K,A*32
$GPGGA,210222.000,4353.2830,N,07917.9743,W,1,07,1.14,206.0,M,-35.3,M,,*59
$GPGSA,A,3,09,07,16,30,08,27,01,,,,,,1.44,1.14,0.88*01
$GPRMC,210222.000,A,4353.2830,N,07917.9743,W,0.32,251.56,240416,,,A*75
$GPVTG,251.56,T,,M,0.32,N,0.59,K,A*35
$GPGGA,210223.000,4353.2830,N,07917.9742,W,1,07,1.14,205.9,M,-35.3,M,,*53
$GPGSA,A,3,09,07,16,30,08,27,01,,,,,,1.43,1.14,0.88*06
$GPGSV,3,1,12,07,80,266,25,08,68,060,31,30,51,305,27,11,43,158,*7F
$GPGSV,3,2,12,27,34,050,24,28,22,278,,09,19,211,18,01,19,157,23*7C
$GPGSV,3,3,12,16,10,083,18,13,07,329,20,23,01,187,,38,,,*44
$GPRMC,210223.000,A,4353.2830,N,07917.9742,W,0.50,145.28,240416,,,A*7E
$GPVTG,145.28,T,,M,0.50,N,0.93,K,A*38
$GPGGA,210224.000,4353.2830,N,07917.9741,W,1,07,1.14,205.9,M,-35.3,M,,*57
$GPGSA,A,3,09,07,16,30,08,27,01,,,,,,1.43,1.14,0.88*06
$GPRMC,210224.000,A,4353.2830,N,07917.9741,W,0.37,59.82,240416,,,A*47
$GPVTG,59.82,T,,M,0.37,N,0.69,K,A*00
$GPGGA,210225.000,4353.2831,N,07917.9740,W,1,07,1.14,205.8,M,-35.3,M,,*57
$GPGSA,A,3,09,07,16,30,08,27,01,,,,,,1.43,1.14,0.88*06
$GPRMC,210225.000,A,4353.2831,N,07917.9740,W,0.47,57.74,240416,,,A*46
$GPVTG,57.74,T,,M,0.47,N,0.87,K,A*00
$GPGGA,210226.000,4353.2831,N,07917.9739,W,1,07,1.14,205.8,M,-35.3,M,,*5A
$GPGSA,A,3,09,07,16,30,08,27,01,,,,,,1.43,1.14,0.88*06
$GPRMC,210226.000,A,4353.2831,N,07917.9739,W,0.15,127.63,240416,,,A*7C
$GPVTG,127.63,T,,M,0.15,N,0.28,K,A*32
$GPGGA,210227.000,4353.2831,N,07917.9738,W,1,07,1.14,205.8,M,-35.3,M,,*5A
$GPGSA,A,3,09,07,16,30,08,27,01,,,,,,1.43,1.14,0.88*06
$GPRMC,210227.000,A,4353.2831,N,07917.9738,W,0.25,272.39,240416,,,A*73
$GPVTG,272.39,T,,M,0.25,N,0.46,K,A*35
$GPGGA,210228.000,4353.2831,N,07917.9739,W,1,07,1.14,205.9,M,-35.3,M,,*55
$GPGSA,A,3,09,07,16,30,08,27,01,,,,,,1.43,1.14,0.88*06
$GPGSV,3,1,12,07,80,266,26,08,67,060,32,30,51,305,28,11,43,158,*7F
$GPGSV,3,2,12,27,34,050,25,28,22,278,,09,19,211,19,01,19,157,23*7C
$GPGSV,3,3,12,16,10,083,19,13,07,329,20,23,01,187,,38,,,*45
$GPRMC,210228.000,A,4353.2831,N,07917.9739,W,0.69,142.72,240416,,,A*7A
$GPVTG,142.72,T,,M,0.69,N,1.29,K,A*3A
$GPGGA,210229.000,4353.2830,N,07917.9737,W,1,07,1.14,205.9,M,-35.3,M,,*5B
$GPGSA,A,3,09,07,16,30,08,27,01,,,,,,1.43,1.14,0.88*06
$GPRMC,210229.000,A,4353.2830,N,07917.9737,W,0.80,130.30,240416,,,A*70
$GPVTG,130.30,T,,M,0.80,N,1.48,K,A*39
$GPGGA,210230.000,4353.2829,N,07917.9734,W,1,07,1.14,205.9,M,-35.3,M,,*58
$GPGSA,A,3,09,07,16,30,08,27,01,,,,,,1.43,1.14,0.88*06
$GPRMC,210230.000,A,4353.2829,N,07917.9734,W,1.08,141.26,240416,,,A*73
$GPVTG,141.26,T,,M,1.08,N,2.01,K,A*37
$GPGGA,210231.000,4353.2828,N,07917.9732,W,1,07,1.14,206.0,M,-35.3,M,,*54
$GPGSA,A,3,09,07,16,30,08,27,01,,,,,,1.43,1.14,0.88*06
$GPRMC,210231.000,A,4353.2828,N,07917.9732,W,0.62,124.34,240416,,,A*78
$GPVTG,124.34,T,,M,0.62,N,1.14,K,A*3D
$GPGGA,210232.000,4353.2829,N,07917.9735,W,1,07,1.14,205.9,M,-35.3,M,,*5B
$GPGSA,A,3,09,07,16,30,08,27,01,,,,,,1.44,1.14,0.88*01
$GPRMC,210232.000,A,4353.2829,N,07917.9735,W,0.60,338.29,240416,,,A*7C
$GPVTG,338.29,T,,M,0.60,N,1.11,K,A*39
$GPGGA,210233.000,4353.2831,N,07917.9736,W,1,06,1.50,205.9,M,-35.3,M,,*51
$GPGSA,A,3,09,07,16,08,27,01,,,,,,,1.75,1.50,0.90*09
$GPGSV,3,1,12,07,80,266,26,08,67,060,32,30,51,305,,11,43,158,*75
$GPGSV,3,2,12,27,34,050,26,28,22,278,,09,19,211,19,01,19,157,23*7F
$GPGSV,3,3,12,16,10,083,18,13,07,329,21,23,01,187,,41,,,*4B
$GPRMC,210233.000,A,4353.2831,N,07917.9736,W,0.53,352.45,240416,,,A*71
$GPVTG,352.45,T,,M,0.53,N,0.99,K,A*3E
$GPGGA,210234.000,4353.2831,N,07917.9738,W,1,06,1.97,205.8,M,-35.3,M,,*52
$GPGSA,A,3,09,07,16,08,27,01,,,,,,,2.84,1.97,2.05*01
$GPRMC,210234.000,A,4353.2831,N,07917.9738,W,0.57,270.07,240416,,,A*7B
$GPVTG,270.07,T,,M,0.57,N,1.05,K,A*39
$GPGGA,210235.000,4353.2831,N,07917.9741,W,1,06,1.50,205.7,M,-35.3,M,,*59
$GPGSA,A,3,09,07,16,08,27,01,,,,,,,1.75,1.50,0.90*09
$GPRMC,210235.000,A,4353.2831,N,07917.9741,W,0.40,289.00,240416,,,A*73
$GPVTG,289.00,T,,M,0.40,N,0.74,K,A*39
$GPGGA,210236.000,4353.2832,N,07917.9742,W,1,06,1.50,205.7,M,-35.3,M,,*5A
$GPGSA,A,3,09,07,16,08,27,01,,,,,,,1.75,1.50,0.90*09
$GPRMC,210236.000,A,4353.2832,N,07917.9742,W,0.41,6.34,240416,,,A*73
$GPVTG,6.34,T,,M,0.41,N,0.76,K,A*38
$GPGGA,210237.000,4353.2833,N,07917.9742,W,1,06,1.97,205.7,M,-35.3,M,,*51
$GPGSA,A,3,09,07,16,08,27,01,,,,,,,2.84,1.97,2.04*00
$GPRMC,210237.000,A,4353.2833,N,07917.9742,W,0.46,6.77,240416,,,A*73
$GPVTG,6.77,T,,M,0.46,N,0.86,K,A*37
$GPGGA,210238.000,4353.2834,N,07917.9742,W,1,06,1.97,205.7,M,-35.3,M,,*59
$GPGSA,A,3,09,07,16,08,27,01,,,,,,,2.84,1.97,2.04*00
$GPGSV,3,1,12,07,80,266,27,08,67,060,32,30,51,305,,11,43,158,*74
$GPGSV,3,2,12,27,34,050,27,28,22,278,,09,19,211,19,01,19,157,23*7E
$GPGSV,3,3,12,16,10,083,18,13,07,329,21,23,01,187,,43,,,*49
$GPRMC,210238.000,A,4353.2834,N,07917.9742,W,0.39,300.84,240416,,,A*7A
$GPVTG,300.84,T,,M,0.39,N,0.73,K,A*3C
$GPGGA,210239.000,4353.2835,N,07917.9743,W,1,07,1.14,205.6,M,-35.3,M,,*53
$GPGSA,A,3,09,07,16,30,08,27,01,,,,,,1.43,1.14,0.88*06
$GPRMC,210239.000,A,4353.2835,N,07917.9743,W,1.03,312.32,240416,,,A*7D
$GPVTG,312.32,T,,M,1.03,N,1.90,K,A*36
$GPGGA,210240.000,4353.2837,N,07917.9747,W,1,07,1.14,205.4,M,-35.3,M,,*59
$GPGSA,A,3,09,07,16,30,08,27,01,,,,,,1.43,1.14,0.88*06
$GPRMC,210240.000,A,4353.2837,N,07917.9747,W,1.00,336.89,240416,,,A*70
$GPVTG,336.89,T,,M,1.00,N,1.85,K,A*37
$GPGGA,210241.000,4353.2840,N,07917.9753,W,1,07,1.14,205.2,M,-35.3,M,,*5B
$GPGSA,A,3,09,07,16,30,08,27,01,,,,,,1.44,1.14,0.88*01
$GPRMC,210241.000,A,4353.2840,N,07917.9753,W,1.12,313.39,240416,,,A*7B
$GPVTG,313.39,T,,M,1.12,N,2.07,K,A*31
$GPGGA,210242.000,4353.2842,N,07917.9763,W,1,07,1.14,204.9,M,-35.3,M,,*53
$GPGSA,A,3,09,07,16,30,08,27,01,,,,,,1.44,1.14,0.88*01
$GPRMC,210242.000,A,4353.2842,N,07917.9763,W,1.93,280.26,240416,,,A*75
$GPVTG,280.26,T,,M,1.93,N,3.57,K,A*39
$GPGGA,210243.000,4353.2843,N,07917.9770,W,1,07,1.14,204.7,M,-35.3,M,,*5F
$GPGSA,A,3,09,07,16,30,08,27,01,,,,,,1.44,1.14,0.88*01
$GPGSV,3,1,12,07,80,266,26,08,67,060,32,30,51,305,23,11,43,158,*74
$GPGSV,3,2,12,27,33,050,26,28,22,278,,09,19,211,18,01,19,157,23*79
$GPGSV,3,3,12,16,10,083,18,13,07,329,20,23,01,187,,45,,,*4E
$GPRMC,210243.000,A,4353.2843,N,07917.9770,W,1.91,272.17,240416,,,A*7A
$GPVTG,272.17,T,,M,1.91,N,3.54,K,A*37
$GPGGA,210244.000,4353.2844,N,07917.9777,W,1,07,1.14,204.5,M,-35.3,M,,*5A
$GPGSA,A,3,09,07,16,30,08,27,01,,,,,,1.44,1.14,0.88*01
$GPRMC,210244.000,A,4353.2844,N,07917.9777,W,1.10,293.69,240416,,,A*72
$GPVTG,293.69,T,,M,1.10,N,2.04,K,A*3C
$GPGGA,210245.000,4353.2847,N,07917.9784,W,1,07,1.14,204.3,M,-35.3,M,,*52
$GPGSA,A,3,09,07,16,30,08,27,01,,,,,,1.44,1.14,0.88*01
$GPRMC,210245.000,A,4353.2847,N,07917.9784,W,1.42,302.89,240416,,,A*7C
$GPVTG,302.89,T,,M,1.42,N,2.64,K,A*3A
$GPGGA,210246.000,4353.2850,N,07917.9793,W,1,07,1.14,204.0,M,-35.3,M,,*52
$GPGSA,A,3,09,07,16,30,08,27,01,,,,,,1.44,1.14,0.88*01
$GPRMC,210246.000,A,4353.2850,N,07917.9793,W,1.86,295.77,240416,,,A*79
$GPVTG,295.77,T,,M,1.86,N,3.44,K,A*3F
$GPGGA,210247.000,4353.2852,N,07917.9803,W,1,07,1.14,203.8,M,-35.3,M,,*58
$GPGSA,A,3,09,07,16,30,08,27,01,,,,,,1.44,1.14,0.87*0E
$GPRMC,210247.000,A,4353.2852,N,07917.9803,W,1.94,298.77,240416,,,A*72
$GPVTG,298.77,T,,M,1.94,N,3.59,K,A*3D
$GPGGA,210248.000,4353.2853,N,07917.9809,W,1,07,1.14,203.6,M,-35.3,M,,*52
$GPGSA,A,3,09,07,16,30,08,27,01,,,,,,1.44,1.14,0.87*0E
$GPGSV,3,1,12,07,80,266,27,08,67,060,32,30,51,305,25,11,43,158,*73
$GPGSV,3,2,12,27,33,050,28,28,23,278,,09,19,211,18,01,19,157,23*76
$GPGSV,3,3,12,16,10,083,18,13,07,329,20,23,01,187,,45,,,*4E
$GPRMC,210248.000,A,4353.2853,N,07917.9809,W,1.11,304.52,240416,,,A*78
$GPVTG,304.52,T,,M,1.11,N,2.06,K,A*38
$GPGGA,210249.000,4353.2853,N,07917.9815,W,1,07,1.14,203.3,M,-35.3,M,,*5B
$GPGSA,A,3,09,07,16,30,08,27,01,,,,,,1.44,1.14,0.87*0E
$GPRMC,210249.000,A,4353.2853,N,07917.9815,W,1.15,286.71,240416,,,A*7A
$GPVTG,286.71,T,,M,1.15,N,2.13,K,A*32
$GPGGA,210250.000,4353.2852,N,07917.9818,W,1,06,1.50,203.2,M,-35.3,M,,*5F
$GPGSA,A,3,09,07,16,08,27,01,,,,,,,1.75,1.50,0.90*09
$GPRMC,210250.000,A,4353.2852,N,07917.9818,W,1.13,262.80,240416,,,A*7C
$GPVTG,262.80,T,,M,1.13,N,2.09,K,A*3B
$GPGGA,210251.000,4353.2850,N,07917.9820,W,1,06,1.50,203.0,M,-35.3,M,,*55
$GPGSA,A,3,09,07,16,08,27,01,,,,,,,1.75,1.50,0.90*09
$GPRMC,210251.000,A,4353.2850,N,07917.9820,W,0.56,261.89,240416,,,A*7E
$GPVTG,261.89,T,,M,0.56,N,1.03,K,A*38
$GPGGA,210252.000,4353.2850,N,07917.9820,W,1,06,1.50,203.0,M,-35.3,M,,*56
$GPGSA,A,3,09,07,16,08,27,01,,,,,,,1.75,1.50,0.90*09
$GPRMC,210252.000,A,4353.2850,N,07917.9820,W,0.08,7.48,240416,,,A*79
$GPVTG,7.48,T,,M,0.08,N,0.15,K,A*3A
$GPGGA,210253.000,4353.2849,N,07917.9818,W,1,06,1.96,202.9,M,-35.3,M,,*56
$GPGSA,A,3,09,07,16,08,27,01,,,,,,,2.83,1.96,2.04*06
$GPGSV,3,1,12,07,80,266,26,08,67,060,31,30,51,305,,11,43,158,*76
$GPGSV,3,2,12,27,33,050,28,28,23,278,,09,19,211,18,01,19,156,23*77
$GPGSV,3,3,12,16,10,083,18,13,07,329,19,23,01,187,,46,,,*47
$GPRMC,210253.000,A,4353.2849,N,07917.9818,W,0.48,87.84,240416,,,A*47
$GPVTG,87.84,T,,M,0.48,N,0.88,K,A*02
$GPGGA,210254.000,4353.2847,N,07917.9815,W,1,06,1.50,202.8,M,-35.3,M,,*59
$GPGSA,A,3,09,07,16,08,27,01,,,,,,,1.75,1.50,0.90*09
$GPRMC,210254.000,A,4353.2847,N,07917.9815,W,0.52,185.79,240416,,,A*79
$GPVTG,185.79,T,,M,0.52,N,0.96,K,A*37
$GPGGA,210255.000,4353.2845,N,07917.9816,W,1,07,1.14,202.8,M,-35.3,M,,*58
$GPGSA,A,3,30,09,07,16,08,27,01,,,,,,1.44,1.14,0.87*0E
$GPRMC,210255.000,A,4353.2845,N,07917.9816,W,0.56,201.11,240416,,,A*7C
$GPVTG,201.11,T,,M,0.56,N,1.04,K,A*38
$GPGGA,210256.000,4353.2844,N,07917.9816,W,1,07,1.14,202.8,M,-35.3,M,,*5A
$GPGSA,A,3,30,09,07,16,08,27,01,,,,,,1.44,1.14,0.87*0E
$GPRMC,210256.000,A,4353.2844,N,07917.9816,W,0.09,320.35,240416,,,A*70
$GPVTG,320.35,T,,M,0.09,N,0.17,K,A*35
$GPGGA,210257.000,4353.2844,N,07917.9817,W,1,07,1.14,202.8,M,-35.3,M,,*5A
$GPGSA,A,3,30,09,07,16,08,27,01,,,,,,1.44,1.14,0.87*0E
$GPRMC,210257.000,A,4353.2844,N,07917.9817,W,0.03,95.58,240416,,,A*4C
$GPVTG,95.58,T,,M,0.03,N,0.06,K,A*09
$GPGGA,210258.000,4353.2844,N,07917.9816,W,1,07,1.14,202.7,M,-35.3,M,,*5B
$GPGSA,A,3,30,09,07,16,08,27,01,,,,,,1.44,1.14,0.87*0E
$GPGSV,3,1,12,07,80,264,18,08,67,060,23,30,51,305,20,11,43,158,*78
$GPGSV,3,2,12,27,33,050,19,28,23,278,,09,19,211,17,01,19,156,19*73
$GPGSV,3,3,12,16,10,083,19,13,07,329,19,23,01,187,,47,,,*47
$GPRMC,210258.000,A,4353.2844,N,07917.9816,W,0.15,119.27,240416,,,A*78
$GPVTG,119.27,T,,M,0.15,N,0.27,K,A*30
$GPGGA,210259.000,4353.2844,N,07917.9816,W,1,07,1.14,202.7,M,-35.3,M,,*5A
$GPGSA,A,3,30,09,07,16,08,27,01,,,,,,1.44,1.14,0.87*0E
$GPRMC,210259.000,A,4353.2844,N,07917.9816,W,0.24,79.35,240416,,,A*4F
$GPVTG,79.35,T,,M,0.24,N,0.45,K,A*02
$GPGGA,210300.000,4353.2844,N,07917.9815,W,1,08,1.05,202.7,M,-35.3,M,,*5B
$GPGSA,A,3,30,09,07,16,08,11,27,01,,,,,1.35,1.05,0.85*0A
$GPRMC,210300.000,A,4353.2844,N,07917.9815,W,0.61,237.95,240416,,,A*72
$GPVTG,237.95,T,,M,0.61,N,1.13,K,A*33
$GPGGA,210301.000,4353.2844,N,07917.9814,W,1,08,1.06,202.6,M,-35.3,M,,*59
$GPGSA,A,3,30,09,07,16,08,11,27,01,,,,,1.35,1.06,0.85*09
$GPRMC,210301.000,A,4353.2844,N,07917.9814,W,0.57,225.84,240416,,,A*74
$GPVTG,225.84,T,,M,0.57,N,1.06,K,A*31
$GPGGA,210302.000,4353.2843,N,07917.9812,W,1,08,1.05,202.6,M,-35.3,M,,*58
$GPGSA,A,3,30,09,07,16,08,11,27,01,,,,,1.35,1.05,0.85*0A
$GPRMC,210302.000,A,4353.2843,N,07917.9812,W,0.68,181.54,240416,,,A*7A
$GPVTG,181.54,T,,M,0.68,N,1.26,K,A*3F
$GPGGA,210303.000,4353.2844,N,07917.9811,W,1,08,1.05,202.6,M,-35.3,M,,*5D
$GPGSA,A,3,30,09,07,16,08,11,27,01,,,,,1.35,1.05,0.85*0A
$GPGSV,3,1,12,07,80,264,17,08,67,060,23,30,51,305,19,11,43,158,15*79
$GPGSV,3,2,12,27,33,050,19,28,23,278,14,01,19,156,18,09,18,211,16*77
$GPGSV,3,3,12,16,10,083,16,13,07,329,20,23,01,187,,49,,,*4C
$GPRMC,210303.000,A,4353.2844,N,07917.9811,W,0.47,157.99,240416,,,A*78
$GPVTG,157.99,T,,M,0.47,N,0.88,K,A*3D
$GPGGA,210304.000,4353.2848,N,07917.9816,W,1,08,1.06,202.7,M,-35.3,M,,*53
$GPGSA,A,3,30,09,07,16,08,11,27,01,,,,,1.35,1.06,0.85*09
$GPRMC,210304.000,A,4353.2848,N,07917.9816,W,0.41,215.27,240416,,,A*72
$GPVTG,215.27,T,,M,0.41,N,0.76,K,A*3A
$GPGGA,210305.000,4353.2845,N,07917.9810,W,1,08,1.05,202.6,M,-35.3,M,,*5B
$GPGSA,A,3,30,09,07,16,08,11,27,01,,,,,1.35,1.05,0.85*0A
$GPRMC,210305.000,A,4353.2845,N,07917.9810,W,0.58,141.58,240416,,,A*7A
$GPVTG,141.58,T,,M,0.58,N,1.07,K,A*3F
$GPGGA,210306.000,4353.2842,N,07917.9806,W,1,08,1.05,202.5,M,-35.3,M,,*5B
$GPGSA,A,3,30,09,07,16,08,11,27,01,,,,,1.35,1.05,0.85*0A
$GPRMC,210306.000,A,4353.2842,N,07917.9806,W,0.12,223.98,240416,,,A*7C
$GPVTG,223.98,T,,M,0.12,N,0.22,K,A*3C
$GPGGA,210307.000,4353.2842,N,07917.9806,W,1,08,1.06,202.5,M,-35.3,M,,*59
$GPGSA,A,3,30,09,07,16,08,11,27,01,,,,,1.35,1.06,0.85*09
$GPRMC,210307.000,A,4353.2842,N,07917.9806,W,1.02,53.31,240416,,,A*4B
$GPVTG,53.31,T,,M,1.02,N,1.90,K,A*02
$GPGGA,210308.000,4353.2842,N,07917.9802,W,1,08,1.06,202.5,M,-35.3,M,,*52
$GPGSA,A,3,30,09,07,16,08,11,27,01,,,,,1.35,1.06,0.85*09
$GPGSV,3,1,12,07,80,264,18,08,67,060,19,30,51,305,17,11,43,158,23*74
$GPGSV,3,2,12,27,33,050,17,28,23,278,16,01,19,156,22,09,18,211,17*73
$GPGSV,3,3,12,16,10,083,17,13,07,329,17,23,01,187,,49,,,*49
$GPRMC,210308.000,A,4353.2842,N,07917.9802,W,0.76,72.66,240416,,,A*43
$GPVTG,72.66,T,,M,0.76,N,1.41,K,A*0D
$GPGGA,210309.000,4353.2841,N,07917.9800,W,1,08,1.06,202.5,M,-35.3,M,,*52
$GPGSA,A,3,30,09,07,16,08,11,27,01,,,,,1.35,1.06,0.85*09
$GPRMC,210309.000,A,4353.2841,N,07917.9800,W,0.24,70.27,240416,,,A*43
$GPVTG,70.27,T,,M,0.24,N,0.45,K,A*08
$GPGGA,210310.000,4353.2840,N,07917.9803,W,1,08,1.05,202.5,M,-35.3,M,,*5B
$GPGSA,A,3,30,09,07,16,08,11,27,01,,,,,1.35,1.05,0.85*0A
$GPRMC,210310.000,A,4353.2840,N,07917.9803,W,0.38,240.74,240416,,,A*73
$GPVTG,240.74,T,,M,0.38,N,0.71,K,A*35
$GPGGA,210311.000,4353.2839,N,07917.9800,W,1,08,1.05,202.6,M,-35.3,M,,*54
$GPGSA,A,3,30,09,07,16,08,11,27,01,,,,,1.35,1.05,0.85*0A
$GPRMC,210311.000,A,4353.2839,N,07917.9800,W,0.94,241.39,240416,,,A*71
$GPVTG,241.39,T,,M,0.94,N,1.75,K,A*3E
$GPGGA,210312.000,4353.2837,N,07917.9796,W,1,08,1.06,202.7,M,-35.3,M,,*5B
$GPGSA,A,3,30,09,07,16,08,11,27,01,,,,,1.35,1.06,0.85*09
$GPRMC,210312.000,A,4353.2837,N,07917.9796,W,0.72,202.38,240416,,,A*72
$GPVTG,202.38,T,,M,0.72,N,1.34,K,A*35
$GPGGA,210313.000,4353.2835,N,07917.9793,W,1,08,1.06,202.8,M,-35.3,M,,*52
$GPGSA,A,3,30,09,07,16,08,11,27,01,,,,,1.35,1.06,0.85*09
$GPGSV,3,1,12,07,80,264,28,08,67,060,23,30,51,305,21,11,43,158,22*7A
$GPGSV,3,2,12,27,33,050,18,28,23,278,19,01,19,156,19,09,18,211,21*7E
$GPGSV,3,3,12,16,10,083,17,13,07,329,16,23,01,187,,37,,,*41
$GPRMC,210313.000,A,4353.2835,N,07917.9793,W,0.63,217.54,240416,,,A*7A
$GPVTG,217.54,T,,M,0.63,N,1.16,K,A*3B
$GPGGA,210314.000,4353.2838,N,07917.9785,W,1,08,1.06,203.0,M,-35.3,M,,*56
$GPGSA,A,3,30,09,07,16,08,11,27,01,,,,,1.35,1.06,0.85*09
$GPRMC,210314.000,A,4353.2838,N,07917.9785,W,0.18,349.98,240416,,,A*71
$GPVTG,349.98,T,,M,0.18,N,0.33,K,A*3B
$GPGGA,210315.000,4353.2833,N,07917.9779,W,1,08,1.17,203.2,M,-35.3,M,,*5D
$GPGSA,A,3,30,09,07,16,08,11,27,01,,,,,1.97,1.17,1.58*00
$GPRMC,210315.000,A,4353.2833,N,07917.9779,W,0.90,164.21,240416,,,A*77
$GPVTG,164.21,T,,M,0.90,N,1.68,K,A*3B
$GPGGA,210316.000,4353.2834,N,07917.9776,W,1,08,1.06,203.4,M,-35.3,M,,*50
$GPGSA,A,3,30,09,07,16,08,11,27,01,,,,,1.35,1.06,0.85*09
$GPRMC,210316.000,A,4353.2834,N,07917.9776,W,0.28,227.83,240416,,,A*73
$GPVTG,227.83,T,,M,0.28,N,0.52,K,A*3C
$GPGGA,210317.000,4353.2838,N,07917.9782,W,1,08,1.06,203.5,M,-35.3,M,,*57
$GPGSA,A,3,30,09,07,16,08,11,27,01,,,,,1.35,1.06,0.85*09
$GPRMC,210317.000,A,4353.2838,N,07917.9782,W,0.63,336.48,240416,,,A*7C
$GPVTG,336.48,T,,M,0.63,N,1.16,K,A*34
$GPGGA,210318.000,4353.2837,N,07917.9783,W,1,08,1.06,203.6,M,-35.3,M,,*55
$GPGSA,A,3,30,09,07,16,08,11,27,01,,,,,1.35,1.06,0.85*09
$GPGSV,3,1,12,07,80,264,35,08,67,060,28,30,51,305,24,11,43,158,25*7F
$GPGSV,3,2,12,27,33,050,20,28,23,278,21,01,19,156,28,09,18,211,21*7C
$GPGSV,3,3,12,16,10,083,17,13,07,329,14,23,01,187,,39,,,*4D
$GPRMC,210318.000,A,4353.2837,N,07917.9783,W,0.56,107.49,240416,,,A*7A
$GPVTG,107.49,T,,M,0.56,N,1.04,K,A*30
$GPGGA,210319.000,4353.2835,N,07917.9789,W,1,08,1.06,203.6,M,-35.3,M,,*5C
$GPGSA,A,3,30,09,07,16,08,11,27,01,,,,,1.35,1.06,0.85*09
$GPRMC,210319.000,A,4353.2835,N,07917.9789,W,0.45,317.62,240416,,,A*7B
$GPVTG,317.62,T,,M,0.45,N,0.84,K,A*31
$GPGGA,210320.000,4353.2836,N,07917.9793,W,1,08,1.06,203.7,M,-35.3,M,,*5F
$GPGSA,A,3,30,09,07,16,08,11,27,01,,,,,1.35,1.06,0.85*09
$GPRMC,210320.000,A,4353.2836,N,07917.9793,W,0.84,329.61,240416,,,A*7A
$GPVTG,329.61,T,,M,0.84,N,1.56,K,A*3C
$GPGGA,210321.000,4353.2836,N,07917.9796,W,1,08,1.06,203.7,M,-35.3,M,,*5B
$GPGSA,A,3,30,09,07,16,08,11,27,01,,,,,1.35,1.06,0.85*09
$GPRMC,210321.000,A,4353.2836,N,07917.9796,W,0.56,307.98,240416,,,A*7B
$GPVTG,307.98,T,,M,0.56,N,1.04,K,A*3E
$GPGGA,210322.000,4353.2837,N,07917.9799,W,1,08,1.06,203.7,M,-35.3,M,,*56
$GPGSA,A,3,30,09,07,16,08,11,27,01,,,,,1.35,1.06,0.85*09
$GPRMC,210322.000,A,4353.2837,N,07917.9799,W,0.69,273.51,240416,,,A*7D
$GPVTG,273.51,T,,M,0.69,N,1.28,K,A*3B
$GPGGA,210323.000,4353.2836,N,07917.9807,W,1,08,1.06,203.6,M,-35.3,M,,*5F
$GPGSA,A,3,30,09,07,16,08,11,27,01,,,,,1.35,1.06,0.85*09
$GPGSV,3,1,12,07,80,264,24,08,67,060,21,30,51,305,22,11,43,158,24*71
$GPGSV,3,2,12,27,33,050,17,28,23,278,21,01,19,156,21,09,18,211,35*74
$GPGSV,3,3,12,16,10,083,17,13,07,329,14,23,01,187,,39,,,*4D
$GPRMC,210323.000,A,4353.2836,N,07917.9807,W,1.13,260.05,240416,,,A*7A
$GPVTG,260.05,T,,M,1.13,N,2.10,K,A*3C
$GPGGA,210324.000,4353.2838,N,07917.9814,W,1,08,1.06,203.6,M,-35.3,M,,*54
$GPGSA,A,3,30,09,07,16,08,11,27,01,,,,,1.35,1.06,0.85*09
$GPRMC,210324.000,A,4353.2838,N,07917.9814,W,1.17,267.32,240416,,,A*76
$GPVTG,267.32,T,,M,1.17,N,2.17,K,A*3C
$GPGGA,210325.000,4353.2839,N,07917.9819,W,1,08,1.06,203.6,M,-35.3,M,,*59
$GPGSA,A,3,30,09,07,16,08,11,27,01,,,,,1.35,1.06,0.85*09
$GPRMC,210325.000,A,4353.2839,N,07917.9819,W,0.84,333.06,240416,,,A*77
$GPVTG,333.06,T,,M,0.84,N,1.56,K,A*36
$GPGGA,210326.000,4353.2841,N,07917.9822,W,1,08,1.06,203.5,M,-35.3,M,,*5E
$GPGSA,A,3,30,09,07,16,08,11,27,01,,,,,1.35,1.06,0.85*09
$GPRMC,210326.000,A,4353.2841,N,07917.9822,W,0.81,317.48,240416,,,A*7A
$GPVTG,317.48,T,,M,0.81,N,1.49,K,A*31
$GPGGA,210327.000,4353.2841,N,07917.9829,W,1,08,1.06,203.5,M,-35.3,M,,*54
$GPGSA,A,3,30,09,07,16,08,11,27,01,,,,,1.35,1.06,0.85*09
$GPRMC,210327.000,A,4353.2841,N,07917.9829,W,1.13,263.41,240416,,,A*71
$GPVTG,263.41,T,,M,1.13,N,2.10,K,A*3F
$GPGGA,210328.000,4353.2838,N,07917.9835,W,1,08,1.06,203.4,M,-35.3,M,,*59
$GPGSA,A,3,30,09,07,16,08,11,27,01,,,,,1.35,1.06,0.84*08
$GPGSV,3,1,12,07,80,264,33,08,67,060,19,30,51,305,32,11,43,158,23*7A
$GPGSV,3,2,12,27,33,050,17,28,23,278,24,01,19,156,23,09,18,211,37*71
$GPGSV,3,3,12,16,10,083,16,13,07,329,14,23,01,187,,50,,,*43
$GPRMC,210328.000,A,4353.2838,N,07917.9835,W,0.30,279.67,240416,,,A*72
$GPVTG,279.67,T,,M,0.30,N,0.56,K,A*30
$GPGGA,210329.000,4353.2837,N,07917.9839,W,1,08,1.06,203.5,M,-35.3,M,,*5A
$GPGSA,A,3,30,09,07,16,08,11,27,01,,,,,1.35,1.06,0.84*08
$GPRMC,210329.000,A,4353.2837,N,07917.9839,W,1.35,58.74,240416,,,A*47
$GPVTG,58.74,T,,M,1.35,N,2.51,K,A*02
$GPGGA,210330.000,4353.2836,N,07917.9844,W,1,08,1.06,203.3,M,-35.3,M,,*5F
$GPGSA,A,3,30,09,07,16,08,11,27,01,,,,,1.35,1.06,0.85*09
$GPRMC,210330.000,A,4353.2836,N,07917.9844,W,0.67,63.09,240416,,,A*40
$GPVTG,63.09,T,,M,0.67,N,1.24,K,A*07
$GPGGA,210331.000,4353.2831,N,07917.9853,W,1,08,1.06,203.2,M,-35.3,M,,*5E
$GPGSA,A,3,30,09,07,16,08,11,27,01,,,,,1.35,1.06,0.84*08
$GPRMC,210331.000,A,4353.2831,N,07917.9853,W,0.49,162.56,240416,,,A*76
$GPVTG,162.56,T,,M,0.49,N,0.90,K,A*3F
$GPGGA,210332.000,4353.2823,N,07917.9856,W,1,08,1.06,203.1,M,-35.3,M,,*58
$GPGSA,A,3,30,09,07,16,08,11,27,01,,,,,1.35,1.06,0.85*09
$GPRMC,210332.000,A,4353.2823,N,07917.9856,W,1.84,175.13,240416,,,A*74
$GPVTG,175.13,T,,M,1.84,N,3.41,K,A*37
$GPGGA,210333.000,4353.2815,N,07917.9858,W,1,08,1.06,203.2,M,-35.3,M,,*51
$GPGSA,A,3,30,09,07,16,08,11,27,01,,,,,1.35,1.06,0.84*08
$GPGSV,3,1,12,07,80,262,39,08,67,060,33,30,51,305,40,11,43,158,25*7D
$GPGSV,3,2,12,27,33,050,18,28,23,278,38,01,19,156,22,09,18,211,34*71
$GPGSV,3,3,12,16,10,083,16,13,07,329,15,23,01,187,,42,,,*41
$GPRMC,210333.000,A,4353.2815,N,07917.9858,W,1.83,179.57,240416,,,A*75
$GPVTG,179.57,T,,M,1.83,N,3.39,K,A*33
$GPGGA,210334.000,4353.2809,N,07917.9857,W,1,08,1.06,203.4,M,-35.3,M,,*52
$GPGSA,A,3,30,09,07,16,08,11,27,01,,,,,1.35,1.06,0.84*08
$GPRMC,210334.000,A,4353.2809,N,07917.9857,W,1.73,170.14,240416,,,A*71
$GPVTG,170.14,T,,M,1.73,N,3.21,K,A*3B
$GPGGA,210335.000,4353.2805,N,07917.9858,W,1,08,1.06,203.4,M,-35.3,M,,*50
$GPGSA,A,3,30,09,07,16,08,11,27,01,,,,,1.35,1.06,0.84*08
$GPRMC,210335.000,A,4353.2805,N,07917.9858,W,1.52,167.12,240416,,,A*70
$GPVTG,167.12,T,,M,1.52,N,2.82,K,A*30
$GPGGA,210336.000,4353.2803,N,07917.9858,W,1,08,1.06,203.3,M,-35.3,M,,*52
$GPGSA,A,3,30,09,07,16,08,11,27,01,,,,,1.35,1.06,0.84*08
$GPRMC,210336.000,A,4353.2803,N,07917.9858,W,1.12,169.76,240416,,,A*7D
$GPVTG,169.76,T,,M,1.12,N,2.07,K,A*35
$GPGGA,210337.000,4353.2800,N,07917.9859,W,1,08,1.06,203.4,M,-35.3,M,,*56
$GPGSA,A,3,30,09,07,16,08,11,27,01,,,,,1.35,1.06,0.84*08
$GPRMC,210337.000,A,4353.2800,N,07917.9859,W,0.92,159.83,240416,,,A*7E
$GPVTG,159.83,T,,M,0.92,N,1.70,K,A*36
$GPGGA,210338.000,4353.2799,N,07917.9861,W,1,08,1.06,203.3,M,-35.3,M,,*5A
$GPGSA,A,3,30,09,07,16,08,11,27,01,,,,,1.35,1.06,0.84*08
$GPGSV,3,1,12,07,80,262,21,08,67,059,32,30,51,305,27,11,43,157,37*72
$GPGSV,3,2,12,27,33,050,18,28,23,278,38,01,19,156,23,09,18,211,27*72
$GPGSV,3,3,12,16,10,083,22,13,07,329,16,23,01,187,,42,,,*45
$GPRMC,210338.000,A,4353.2799,N,07917.9861,W,0.62,156.45,240416,,,A*7F
$GPVTG,156.45,T,,M,0.62,N,1.15,K,A*3F
$GPGGA,210339.000,4353.2799,N,07917.9863,W,1,08,1.06,203.3,M,-35.3,M,,*59
$GPGSA,A,3,30,09,07,16,08,11,27,01,,,,,1.35,1.06,0.84*08
$GPRMC,210339.000,A,4353.2799,N,07917.9863,W,0.29,105.96,240416,,,A*7B
$GPVTG,105.96,T,,M,0.29,N,0.55,K,A*3D
$GPGGA,210340.000,4353.2797,N,07917.9869,W,1,08,1.06,203.3,M,-35.3,M,,*53
$GPGSA,A,3,30,09,07,16,08,11,27,01,,,,,1.35,1.06,0.84*08
$GPRMC,210340.000,A,4353.2797,N,07917.9869,W,0.02,10.40,240416,,,A*46
$GPVTG,10.40,T,,M,0.02,N,0.04,K,A*0E
$GPGGA,210341.000,4353.2796,N,07917.9872,W,1,08,1.17,203.4,M,-35.3,M,,*5E
$GPGSA,A,3,30,09,07,16,08,11,27,01,,,,,1.97,1.17,1.58*00
$GPRMC,210341.000,A,4353.2796,N,07917.9872,W,0.11,6.67,240416,,,A*7C
$GPVTG,6.67,T,,M,0.11,N,0.20,K,A*38
$GPGGA,210342.000,4353.2795,N,07917.9874,W,1,08,1.17,203.4,M,-35.3,M,,*58
$GPGSA,A,3,30,09,07,16,08,11,27,01,,,,,1.97,1.17,1.58*00
$GPRMC,210342.000,A,4353.2795,N,07917.9874,W,0.05,36.65,240416,,,A*4E
$GPVTG,36.65,T,,M,0.05,N,0.10,K,A*0F
$GPGGA,210343.000,4353.2795,N,07917.9874,W,1,08,1.06,203.3,M,-35.3,M,,*5E
$GPGSA,A,3,30,09,07,16,08,11,27,01,,,,,1.35,1.06,0.84*08
$GPGSV,3,1,12,07,80,262,19,08,67,059,37,30,51,305,29,11,43,157,40*72
$GPGSV,3,2,12,27,33,050,18,28,23,278,40,01,19,156,22,09,18,211,24*7F
$GPGSV,3,3,12,16,09,083,21,13,08,329,16,23,01,187,,40,,,*43
$GPRMC,210343.000,A,4353.2795,N,07917.9874,W,0.10,52.49,240416,,,A*47
$GPVTG,52.49,T,,M,0.10,N,0.19,K,A*0E
$GPGGA,210344.000,4353.2795,N,07917.9874,W,1,08,1.06,203.3,M,-35.3,M,,*59
$GPGSA,A,3,30,09,07,16,08,11,27,01,,,,,1.35,1.06,0.84*08
$GPRMC,210344.000,A,4353.2795,N,07917.9874,W,0.25,37.41,240416,,,A*4D
$GPVTG,37.41,T,,M,0.25,N,0.46,K,A*09
$GPGGA,210345.000,4353.2796,N,07917.9873,W,1,08,1.06,203.3,M,-35.3,M,,*5C
$GPGSA,A,3,30,09,07,16,08,11,27,01,,,,,1.35,1.06,0.84*08
$GPRMC,210345.000,A,4353.2796,N,07917.9873,W,0.29,58.55,240416,,,A*48
$GPVTG,58.55,T,,M,0.29,N,0.54,K,A*0A
$GPGGA,210346.000,4353.2796,N,07917.9872,W,1,08,1.06,203.3,M,-35.3,M,,*5E
$GPGSA,A,3,30,09,07,16,08,11,27,01,,,,,1.35,1.06,0.84*08
$GPRMC,210346.000,A,4353.2796,N,07917.9872,W,0.38,46.02,240416,,,A*47
$GPVTG,46.02,T,,M,0.38,N,0.70,K,A*01
$GPGGA,210347.000,4353.2797,N,07917.9871,W,1,08,1.06,203.3,M,-35.3,M,,*5D
$GPGSA,A,3,30,09,07,16,08,11,27,01,,,,,1.35,1.06,0.84*08
$GPRMC,210347.000,A,4353.2797,N,07917.9871,W,0.25,29.15,240416,,,A*47
$GPVTG,29.15,T,,M,0.25,N,0.46,K,A*07
$GPGGA,210348.000,4353.2797,N,07917.9871,W,1,08,1.06,203.3,M,-35.3,M,,*52
$GPGSA,A,3,30,09,07,16,08,11,27,01,,,,,1.35,1.06,0.84*08
$GPGSV,3,1,12,07,80,262,18,08,67,059,37,30,51,305,29,11,43,157,40*73
$GPGSV,3,2,12,27,33,050,18,28,23,278,40,01,19,156,22,09,18,211,24*7F
$GPGSV,3,3,12,16,09,083,22,13,08,329,15,23,01,187,,44,,,*47
$GPRMC,210348.000,A,4353.2797,N,07917.9871,W,0.23,14.00,240416,,,A*44
$GPVTG,14.00,T,,M,0.23,N,0.42,K,A*0F
$GPGGA,210349.000,4353.2798,N,07917.9871,W,1,08,1.17,203.2,M,-35.3,M,,*5D
$GPGSA,A,3,30,09,07,16,08,11,27,01,,,,,1.96,1.17,1.58*01
$GPRMC,210349.000,A,4353.2798,N,07917.9871,W,0.20,355.71,240416,,,A*79
$GPVTG,355.71,T,,M,0.20,N,0.38,K,A*31
$GPGGA,210350.000,4353.2798,N,07917.9871,W,1,08,1.17,203.2,M,-35.3,M,,*55
$GPGSA,A,3,30,09,07,16,08,11,27,01,,,,,1.96,1.17,1.58*01
$GPRMC,210350.000,A,4353.2798,N,07917.9871,W,0.18,323.29,240416,,,A*76
$GPVTG,323.29,T,,M,0.18,N,0.33,K,A*3D
$GPGGA,210351.000,4353.2799,N,07917.9871,W,1,08,1.06,203.2,M,-35.3,M,,*55
$GPGSA,A,3,30,09,07,16,08,11,27,01,,,,,1.35,1.06,0.84*08
$GPRMC,210351.000,A,4353.2799,N,07917.9871,W,0.16,266.59,240416,,,A*7F
$GPVTG,266.59,T,,M,0.16,N,0.29,K,A*3F
$GPGGA,210352.000,4353.2799,N,07917.9872,W,1,08,1.06,203.2,M,-35.3,M,,*55
$GPGSA,A,3,30,09,07,16,08,11,27,01,,,,,1.35,1.06,0.84*08
$GPRMC,210352.000,A,4353.2799,N,07917.9872,W,0.34,255.26,240416,,,A*77
$GPVTG,255.26,T,,M,0.34,N,0.63,K,A*39
$GPGGA,210353.000,4353.2798,N,07917.9873,W,1,08,1.06,203.2,M,-35.3,M,,*54
$GPGSA,A,3,30,09,07,16,08,11,27,01,,,,,1.35,1.06,0.84*08
$GPGSV,3,1,12,07,80,262,18,08,67,059,38,30,51,305,29,11,43,157,40*7C
$GPGSV,3,2,12,27,33,050,19,51,32,217,,28,23,278,40,01,19,156,22*7B
$GPGSV,3,3,12,09,18,211,24,16,09,083,20,13,08,329,15,23,01,187,*71
$GPRMC,210353.000,A,4353.2798,N,07917.9873,W,0.31,261.35,240416,,,A*76
$GPVTG,261.35,T,,M,0.31,N,0.57,K,A*3E
$GPGGA,210354.000,4353.2798,N,07917.9874,W,1,08,1.06,203.2,M,-35.3,M,,*54
$GPGSA,A,3,30,09,07,16,08,11,27,01,,,,,1.35,1.06,0.84*08
$GPRMC,210354.000,A,4353.2798,N,07917.9874,W,0.15,283.61,240416,,,A*7D
$GPVTG,283.61,T,,M,0.15,N,0.27,K,A*32
$GPGGA,210355.000,4353.2798,N,07917.9875,W,1,08,1.06,203.2,M,-35.3,M,,*54
$GPGSA,A,3,30,09,07,16,08,11,27,01,,,,,1.35,1.06,0.84*08
$GPRMC,210355.000,A,4353.2798,N,07917.9875,W,0.09,278.34,240416,,,A*74
$GPVTG,278.34,T,,M,0.09,N,0.17,K,A*38
$GPGGA,210356.000,4353.2798,N,07917.9875,W,1,08,1.06,203.2,M,-35.3,M,,*57
$GPGSA,A,3,30,09,07,16,08,11,27,01,,,,,1.35,1.06,0.84*08
$GPRMC,210356.000,A,4353.2798,N,07917.9875,W,0.18,127.86,240416,,,A*77
$GPVTG,127.86,T,,M,0.18,N,0.33,K,A*3E
$GPGGA,210357.000,4353.2798,N,07917.9875,W,1,08,1.06,203.2,M,-35.3,M,,*56
$GPGSA,A,3,30,09,07,16,08,11,27,01,,,,,1.35,1.06,0.84*08
$GPRMC,210357.000,A,4353.2798,N,07917.9875,W,0.10,38.71,240416,,,A*49
$GPVTG,38.71,T,,M,0.10,N,0.18,K,A*08
$GPGGA,210358.000,4353.2798,N,07917.9875,W,1,08,1.06,203.2,M,-35.3,M,,*59
$GPGSA,A,3,30,09,07,16,08,11,27,01,,,,,1.35,1.06,0.84*08
$GPGSV,3,1,12,07,80,262,19,08,67,059,38,30,52,305,29,11,43,157,40*7E
$GPGSV,3,2,12,27,33,050,20,51,32,217,39,28,23,278,40,01,19,156,22*7B
$GPGSV,3,3,12,09,18,211,24,16,09,083,22,13,08,329,15,23,01,187,*73
$GPRMC,210358.000,A,4353.2798,N,07917.9875,W,0.13,249.91,240416,,,A*7F
$GPVTG,249.91,T,,M,0.13,N,0.25,K,A*3F
$GPGGA,210359.000,4353.2798,N,07917.9875,W,1,08,1.06,203.2,M,-35.3,M,,*58
$GPGSA,A,3,30,09,07,16,08,11,27,01,,,,,1.35,1.06,0.84*08
$GPRMC,210359.000,A,4353.2798,N,07917.9875,W,0.18,263.45,240416,,,A*74
$GPVTG,263.45,T,,M,0.18,N,0.34,K,A*35
$GPGGA,210400.000,4353.2798,N,07917.9876,W,1,08,1.06,203.2,M,-35.3,M,,*50
$GPGSA,A,3,30,09,07,16,08,11,27,01,,,,,1.35,1.06,0.84*08
$GPRMC,210400.000,A,4353.2798,N,07917.9876,W,0.16,147.77,240416,,,A*76
$GPVTG,147.77,T,,M,0.16,N,0.30,K,A*3B
$GPGGA,210401.000,4353.2798,N,07917.9876,W,1,08,1.06,203.2,M,-35.3,M,,*51
$GPGSA,A,3,30,09,07,16,08,11,27,01,,,,,1.35,1.06,0.84*08
$GPRMC,210401.000,A,4353.2798,N,07917.9876,W,0.09,111.26,240416,,,A*7E
$GPVTG,111.26,T,,M,0.09,N,0.18,K,A*38
$GPGGA,210402.000,4353.2797,N,07917.9875,W,1,08,1.06,203.2,M,-35.3,M,,*5E
$GPGSA,A,3,30,09,07,16,08,11,27,01,,,,,1.35,1.06,0.84*08
$GPRMC,210402.000,A,4353.2797,N,07917.9875,W,0.07,202.27,240416,,,A*7F
$GPVTG,202.27,T,,M,0.07,N,0.13,K,A*3D
$GPGGA,210403.000,4353.2797,N,07917.9875,W,1,08,1.06,203.2,M,-35.3,M,,*5F
$GPGSA,A,3,30,09,07,16,08,11,27,01,,,,,1.35,1.06,0.84*08
$GPGSV,3,1,12,07,80,262,19,08,67,059,38,30,52,305,29,11,43,157,40*7E
$GPGSV,3,2,12,27,33,050,21,51,32,217,38,28,23,278,40,01,20,156,23*70
$GPGSV,3,3,12,09,18,211,27,16,09,083,23,13,08,329,15,23,01,187,*71
$GPRMC,210403.000,A,4353.2797,N,07917.9875,W,0.08,337.57,240416,,,A*71
$GPVTG,337.57,T,,M,0.08,N,0.15,K,A*34
$GPGGA,210404.000,4353.2797,N,07917.9876,W,1,08,1.06,203.2,M,-35.3,M,,*5B
$GPGSA,A,3,30,09,07,16,08,11,27,01,,,,,1.35,1.06,0.84*08
$GPRMC,210404.000,A,4353.2797,N,07917.9876,W,0.06,67.71,240416,,,A*49
$GPVTG,67.71,T,,M,0.06,N,0.12,K,A*0F
$GPGGA,210405.000,4353.2797,N,07917.9875,W,1,08,1.06,203.2,M,-35.3,M,,*59
$GPGSA,A,3,30,09,07,16,08,11,27,01,,,,,1.35,1.06,0.84*08
$GPRMC,210405.000,A,4353.2797,N,07917.9875,W,0.08,48.11,240416,,,A*4E
$GPVTG,48.11,T,,M,0.08,N,0.15,K,A*0D
$GPGGA,210406.000,4353.2798,N,07917.9875,W,1,08,1.06,203.2,M,-35.3,M,,*55
$GPGSA,A,3,30,09,07,16,08,11,27,01,,,,,1.35,1.06,0.84*08
$GPRMC,210406.000,A,4353.2798,N,07917.9875,W,0.20,76.10,240416,,,A*44
$GPVTG,76.10,T,,M,0.20,N,0.37,K,A*0B
$GPGGA,210407.000,4353.2798,N,07917.9874,W,1,08,1.06,203.2,M,-35.3,M,,*55
$GPGSA,A,3,30,09,07,16,08,11,27,01,,,,,1.35,1.06,0.84*08
$GPRMC,210407.000,A,4353.2798,N,07917.9874,W,0.21,169.19,240416,,,A*73
$GPVTG,169.19,T,,M,0.21,N,0.38,K,A*33
$GPGGA,210408.000,4353.2797,N,07917.9874,W,1,08,1.06,203.2,M,-35.3,M,,*55
$GPGSA,A,3,30,09,07,16,08,11,27,01,,,,,1.35,1.06,0.84*08
$GPGSV,3,1,12,07,80,261,19,08,67,059,38,30,52,305,29,11,43,157,40*7D
$GPGSV,3,2,12,27,33,050,23,51,32,217,39,28,23,278,40,01,20,156,25*75
$GPGSV,3,3,12,09,18,211,28,16,09,083,23,13,08,329,,23,01,187,*7A
$GPRMC,210408.000,A,4353.2797,N,07917.9874,W,0.08,294.01,240416,,,A*70
$GPVTG,294.01,T,,M,0.08,N,0.15,K,A*3F
$GPGGA,210409.000,4353.2797,N,07917.9875,W,1,08,1.06,203.2,M,-35.3,M,,*55
$GPGSA,A,3,30,09,07,16,08,11,27,01,,,,,1.35,1.06,0.84*08
$GPRMC,210409.000,A,4353.2797,N,07917.9875,W,0.08,186.30,240416,,,A*72
$GPVTG,186.30,T,,M,0.08,N,0.14,K,A*3C
$GPGGA,210410.000,4353.2797,N,07917.9875,W,1,08,1.06,203.2,M,-35.3,M,,*5D
$GPGSA,A,3,30,09,07,16,08,11,27,01,,,,,1.35,1.06,0.84*08
$GPRMC,210410.000,A,4353.2797,N,07917.9875,W,0.07,268.54,240416,,,A*74
$GPVTG,268.54,T,,M,0.07,N,0.12,K,A*34
$GPGGA,210411.000,4353.2797,N,07917.9875,W,1,08,1.06,203.2,M,-35.3,M,,*5C
$GPGSA,A,3,30,09,07,16,08,11,27,01,,,,,1.35,1.06,0.84*08
$GPRMC,210411.000,A,4353.2797,N,07917.9875,W,0.22,335.47,240416,,,A*79
$GPVTG,335.47,T,,M,0.22,N,0.40,K,A*3F
$GPGGA,210412.000,4353.2797,N,07917.9875,W,1,08,1.06,203.2,M,-35.3,M,,*5F
$GPGSA,A,3,30,09,07,16,08,11,27,01,,,,,1.35,1.06,0.84*08
$GPRMC,210412.000,A,4353.2797,N,07917.9875,W,0.35,355.58,240416,,,A*74
$GPVTG,355.58,T,,M,0.35,N,0.65,K,A*36
$GPGGA,210413.000,4353.2798,N,07917.9876,W,1,08,1.17,203.2,M,-35.3,M,,*52
$GPGSA,A,3,30,09,07,16,08,11,27,01,,,,,1.96,1.17,1.57*0E
$GPGSV,3,1,12,07,80,261,20,08,67,059,38,30,52,305,29,11,44,157,40*70
$GPGSV,3,2,12,27,33,050,23,51,32,217,39,28,23,278,40,01,20,156,24*74
$GPGSV,3,3,12,09,18,211,28,16,09,083,23,13,08,329,,23,01,187,17*7C
$GPRMC,210413.000,A,4353.2798,N,07917.9876,W,0.34,4.92,240416,,,A*79
$GPVTG,4.92,T,,M,0.34,N,0.63,K,A*30
$GPGGA,210414.000,4353.2799,N,07917.9875,W,1,08,1.17,203.2,M,-35.3,M,,*57
$GPGSA,A,3,30,09,07,16,08,11,27,01,,,,,1.96,1.17,1.57*0E
$GPRMC,210414.000,A,4353.2799,N,07917.9875,W,0.16,344.21,240416,,,A*73
$GPVTG,344.21,T,,M,0.16,N,0.30,K,A*39
$GPGGA,210415.000,4353.2800,N,07917.9876,W,1,08,1.06,203.2,M,-35.3,M,,*5A
$GPGSA,A,3,30,09,07,16,08,11,27,01,,,,,1.35,1.06,0.84*08
$GPRMC,210415.000,A,4353.2800,N,07917.9876,W,0.17,305.67,240416,,,A*78
$GPVTG,305.67,T,,M,0.17,N,0.31,K,A*3E
$GPGGA,210416.000,4353.2800,N,07917.9876,W,1,08,1.06,203.2,M,-35.3,M,,*59
$GPGSA,A,3,30,09,07,16,08,11,27,01,,,,,1.35,1.06,0.84*08
$GPRMC,210416.000,A,4353.2800,N,07917.9876,W,0.19,34.09,240416,,,A*4C
$GPVTG,34.09,T,,M,0.19,N,0.35,K,A*0D
$GPGGA,210417.000,4353.2800,N,07917.9876,W,1,08,1.06,203.1,M,-35.3,M,,*5B
$GPGSA,A,3,30,09,07,16,08,11,27,01,,,,,1.35,1.06,0.84*08
$GPRMC,210417.000,A,4353.2800,N,07917.9876,W,0.10,183.52,240416,,,A*77
$GPVTG,183.52,T,,M,0.10,N,0.19,K,A*39
$GPGGA,210418.000,4353.2800,N,07917.9876,W,1,08,1.06,203.1,M,-35.3,M,,*54
$GPGSA,A,3,30,09,07,16,08,11,27,01,,,,,1.35,1.06,0.84*08
$GPGSV,3,1,12,07,80,261,21,08,67,059,38,30,52,305,29,11,44,157,40*71
$GPGSV,3,2,12,27,33,050,24,51,32,217,39,28,23,278,40,01,20,156,25*72
$GPGSV,3,3,12,09,18,211,29,16,09,083,23,13,08,328,,23,01,187,*7A
$GPRMC,210418.000,A,4353.2800,N,07917.9876,W,0.07,339.53,240416,,,A*7C
$GPVTG,339.53,T,,M,0.07,N,0.13,K,A*37
$GPGGA,210419.000,4353.2800,N,07917.9876,W,1,08,1.06,203.1,M,-35.3,M,,*55
$GPGSA,A,3,30,09,07,16,08,11,27,01,,,,,1.35,1.06,0.84*08
$GPRMC,210419.000,A,4353.2800,N,07917.9876,W,0.10,169.95,240416,,,A*76
$GPVTG,169.95,T,,M,0.10,N,0.18,K,A*37
$GPGGA,210420.000,4353.2800,N,07917.9876,W,1,08,1.06,203.1,M,-35.3,M,,*5F
$GPGSA,A,3,30,09,07,16,08,11,27,01,,,,,1.35,1.06,0.84*08
$GPRMC,210420.000,A,4353.2800,N,07917.9876,W,0.05,93.42,240416,,,A*46
$GPVTG,93.42,T,,M,0.05,N,0.09,K,A*0D
$GPGGA,210421.000,4353.2800,N,07917.9876,W,1,08,1.06,203.1,M,-35.3,M,,*5E
$GPGSA,A,3,30,09,07,16,08,11,27,01,,,,,1.35,1.06,0.84*08
$GPRMC,210421.000,A,4353.2800,N,07917.9876,W,0.07,285.97,240416,,,A*78
$GPVTG,285.97,T,,M,0.07,N,0.13,K,A*39
$GPGGA,210422.000,4353.2800,N,07917.9876,W,1,08,1.06,203.1,M,-35.3,M,,*5D
$GPGSA,A,3,30,09,07,16,08,11,27,01,,,,,1.35,1.06,0.84*08
$GPRMC,210422.000,A,4353.2800,N,07917.9876,W,0.08,269.03,240416,,,A*7B
$GPVTG,269.03,T,,M,0.08,N,0.15,K,A*3F
$GPGGA,210423.000,4353.2800,N,07917.9876,W,1,08,1.06,203.1,M,-35.3,M,,*5C
$GPGSA,A,3,30,09,07,16,08,11,27,01,,,,,1.35,1.06,0.84*08
$GPGSV,3,1,12,07,80,261,21,08,67,059,38,30,52,305,29,11,44,157,39*7F
$GPGSV,3,2,12,27,33,050,24,51,32,217,38,28,23,278,40,01,20,156,26*70
$GPGSV,3,3,12,09,18,211,29,16,09,083,24,13,08,328,,23,01,187,*7D
$GPRMC,210423.000,A,4353.2800,N,07917.9876,W,0.21,199.64,240416,,,A*7C
$GPVTG,199.64,T,,M,0.21,N,0.40,K,A*39
$GPGGA,210424.000,4353.2799,N,07917.9876,W,1,08,1.06,203.1,M,-35.3,M,,*54
$GPGSA,A,3,30,09,07,16,08,11,27,01,,,,,1.35,1.06,0.84*08
$GPRMC,210424.000,A,4353.2799,N,07917.9876,W,0.11,120.80,240416,,,A*7F
$GPVTG,120.80,T,,M,0.11,N,0.21,K,A*35
$GPGGA,210425.000,4353.2799,N,07917.9876,W,1,08,1.06,203.1,M,-35.3,M,,*55
$GPGSA,A,3,30,09,07,16,08,11,27,01,,,,,1.35,1.06,0.84*08
$GPRMC,210425.000,A,4353.2799,N,07917.9876,W,0.11,203.12,240416,,,A*77
$GPVTG,203.12,T,,M,0.11,N,0.20,K,A*3D
$GPGGA,210426.000,4353.2799,N,07917.9876,W,1,08,1.06,203.1,M,-35.3,M,,*56
$GPGSA,A,3,30,09,07,16,08,11,27,01,,,,,1.35,1.06,0.84*08
$GPRMC,210426.000,A,4353.2799,N,07917.9876,W,0.13,124.08,240416,,,A*7B
$GPVTG,124.08,T,,M,0.13,N,0.24,K,A*36
$GPGGA,210427.000,4353.2798,N,07917.9876,W,1,08,1.06,203.1,M,-35.3,M,,*56
$GPGSA,A,3,30,09,07,16,08,11,27,01,,,,,1.35,1.06,0.84*08
$GPRMC,210427.000,A,4353.2798,N,07917.9876,W,0.07,177.73,240416,,,A*74
$GPVTG,177.73,T,,M,0.07,N,0.12,K,A*3C
$GPGGA,210428.000,4353.2798,N,07917.9876,W,1,08,1.06,203.2,M,-35.3,M,,*5A
$GPGSA,A,3,30,09,07,16,08,11,27,01,,,,,1.35,1.06,0.84*08
$GPGSV,3,1,12,07,80,261,23,08,67,059,38,30,52,305,30,11,44,157,39*75
$GPGSV,3,2,12,27,33,050,25,51,32,217,39,28,23,278,40,01,20,156,27*71
$GPGSV,3,3,12,09,18,211,29,16,09,083,24,13,08,328,,23,01,186,*7C
$GPRMC,210428.000,A,4353.2798,N,07917.9876,W,0.24,138.50,240416,,,A*70
$GPVTG,138.50,T,,M,0.24,N,0.45,K,A*35
$GPGGA,210429.000,4353.2798,N,07917.9875,W,1,08,1.06,203.2,M,-35.3,M,,*58
$GPGSA,A,3,30,09,07,16,08,11,27,01,,,,,1.35,1.06,0.84*08
$GPRMC,210429.000,A,4353.2798,N,07917.9875,W,0.25,126.33,240416,,,A*79
$GPVTG,126.33,T,,M,0.25,N,0.46,K,A*3D
$GPGGA,210430.000,4353.2797,N,07917.9874,W,1,08,1.06,203.2,M,-35.3,M,,*5E
$GPGSA,A,3,30,09,07,16,08,11,27,01,,,,,1.35,1.06,0.84*08
$GPRMC,210430.000,A,4353.2797,N,07917.9874,W,0.34,124.25,240416,,,A*7A
$GPVTG,124.25,T,,M,0.34,N,0.63,K,A*3F
$GPGGA,210431.000,4353.2797,N,07917.9873,W,1,08,1.06,203.2,M,-35.3,M,,*58
$GPGSA,A,3,30,09,07,16,08,11,27,01,,,,,1.35,1.06,0.84*08
$GPRMC,210431.000,A,4353.2797,N,07917.9873,W,0.14,97.36,240416,,,A*45
$GPVTG,97.36,T,,M,0.14,N,0.26,K,A*07
$GPGGA,210432.000,4353.2797,N,07917.9873,W,1,09,0.90,203.2,M,-35.3,M,,*54
$GPGSA,A,3,30,09,07,16,28,08,11,27,01,,,,1.20,0.90,0.79*0A
$GPRMC,210432.000,A,4353.2797,N,07917.9873,W,0.05,71.27,240416,,,A*4E
$GPVTG,71.27,T,,M,0.05,N,0.08,K,A*03
$GPGGA,210433.000,4353.2797,N,07917.9873,W,1,09,0.90,203.2,M,-35.3,M,,*55
$GPGSA,A,3,30,09,07,16,28,08,11,27,01,,,,1.20,0.90,0.79*0A
$GPGSV,3,1,12,07,80,261,23,08,67,059,38,30,52,305,30,11,44,157,39*75
$GPGSV,3,2,12,27,33,050,25,51,32,217,38,28,23,278,40,01,20,156,28*7F
$GPGSV,3,3,12,09,18,211,30,16,09,083,25,13,08,328,,23,01,186,*75
$GPRMC,210433.000,A,4353.2797,N,07917.9873,W,0.17,191.45,240416,,,A*77
$GPVTG,191.45,T,,M,0.17,N,0.32,K,A*32
$GPGGA,210434.000,4353.2796,N,07917.9873,W,1,09,0.90,203.2,M,-35.3,M,,*53
$GPGSA,A,3,30,09,07,16,28,08,11,27,01,,,,1.20,0.90,0.79*0A
$GPRMC,210434.000,A,4353.2796,N,07917.9873,W,0.18,209.73,240416,,,A*79
$GPVTG,209.73,T,,M,0.18,N,0.34,K,A*3C
$GPGGA,210435.000,4353.2796,N,07917.9873,W,1,09,0.90,203.2,M,-35.3,M,,*52
$GPGSA,A,3,30,09,07,16,28,08,11,27,01,,,,1.20,0.90,0.79*0A
$GPRMC,210435.000,A,4353.2796,N,07917.9873,W,0.22,180.04,240416,,,A*73
$GPVTG,180.04,T,,M,0.22,N,0.40,K,A*34
$GPGGA,210436.000,4353.2795,N,07917.9873,W,1,09,0.90,203.2,M,-35.3,M,,*52
$GPGSA,A,3,30,09,07,16,28,08,11,27,01,,,,1.20,0.90,0.79*0A
$GPRMC,210436.000,A,4353.2795,N,07917.9873,W,0.14,203.94,240416,,,A*77
$GPVTG,203.94,T,,M,0.14,N,0.25,K,A*33
$GPGGA,210437.000,4353.2795,N,07917.9873,W,1,09,0.90,203.2,M,-35.3,M,,*53
$GPGSA,A,3,30,09,07,16,28,08,11,27,01,,,,1.20,0.90,0.79*0A
$GPRMC,210437.000,A,4353.2795,N,07917.9873,W,0.24,232.82,240416,,,A*70
$GPVTG,232.82,T,,M,0.24,N,0.44,K,A*32
$GPGGA,210438.000,4353.2794,N,07917.9874,W,1,09,0.90,203.2,M,-35.3,M,,*5A
$GPGSA,A,3,30,09,07,16,28,08,11,27,01,,,,1.20,0.90,0.79*0A
$GPGSV,3,1,12,07,80,261,24,08,67,059,38,30,52,305,30,11,44,157,38*73
$GPGSV,3,2,12,27,33,050,26,51,32,217,38,28,23,278,40,01,20,156,28*7C
$GPGSV,3,3,12,09,18,211,31,16,09,083,23,13,08,328,,23,01,186,*72
$GPRMC,210438.000,A,4353.2794,N,07917.9874,W,0.11,163.75,240416,,,A*70
$GPVTG,163.75,T,,M,0.11,N,0.20,K,A*39
$GPGGA,210439.000,4353.2794,N,07917.9874,W,1,09,0.90,203.2,M,-35.3,M,,*5B
$GPGSA,A,3,30,09,07,16,28,08,11,27,01,,,,1.20,0.90,0.79*0A
$GPRMC,210439.000,A,4353.2794,N,07917.9874,W,0.27,112.30,240416,,,A*73
$GPVTG,112.30,T,,M,0.27,N,0.51,K,A*3D
$GPGGA,210440.000,4353.2794,N,07917.9873,W,1,09,0.90,203.2,M,-35.3,M,,*52
$GPGSA,A,3,30,09,07,16,28,08,11,27,01,,,,1.20,0.90,0.79*0A
$GPRMC,210440.000,A,4353.2794,N,07917.9873,W,0.28,108.34,240416,,,A*7A
$GPVTG,108.34,T,,M,0.28,N,0.52,K,A*3E
$GPGGA,210441.000,4353.2794,N,07917.9872,W,1,09,0.90,203.2,M,-35.3,M,,*52
$GPGSA,A,3,30,09,07,16,28,08,11,27,01,,,,1.20,0.90,0.79*0A
$GPRMC,210441.000,A,4353.2794,N,07917.9872,W,0.37,107.44,240416,,,A*7C
$GPVTG,107.44,T,,M,0.37,N,0.69,K,A*30
$GPGGA,210442.000,4353.2793,N,07917.9871,W,1,09,0.90,203.2,M,-35.3,M,,*55
$GPGSA,A,3,30,09,07,16,28,08,11,27,01,,,,1.20,0.90,0.79*0A
$GPRMC,210442.000,A,4353.2793,N,07917.9871,W,0.30,82.27,240416,,,A*45
$GPVTG,82.27,T,,M,0.30,N,0.56,K,A*02
$GPGGA,210443.000,4353.2793,N,07917.9869,W,1,09,0.90,203.2,M,-35.3,M,,*5D
$GPGSA,A,3,30,09,07,16,28,08,11,27,01,,,,1.20,0.90,0.79*0A
$GPGSV,3,1,12,07,80,259,26,08,67,059,30,30,52,305,31,11,44,157,39*72
$GPGSV,3,2,12,27,33,050,23,51,32,217,38,28,23,278,39,01,20,156,30*7E
$GPGSV,3,3,12,09,18,211,29,16,09,083,23,13,08,328,,23,01,186,*7B
$GPRMC,210443.000,A,4353.2793,N,07917.9869,W,0.16,339.26,240416,,,A*7B
$GPVTG,339.26,T,,M,0.16,N,0.30,K,A*34
$GPGGA,210444.000,4353.2794,N,07917.9870,W,1,09,0.90,203.2,M,-35.3,M,,*55
$GPGSA,A,3,30,09,07,16,28,08,11,27,01,,,,1.20,0.90,0.79*0A
$GPRMC,210444.000,A,4353.2794,N,07917.9870,W,0.14,164.14,240416,,,A*7A
$GPVTG,164.14,T,,M,0.14,N,0.26,K,A*3A
$GPGGA,210445.000,4353.2793,N,07917.9870,W,1,09,0.90,203.2,M,-35.3,M,,*53
$GPGSA,A,3,30,09,07,16,28,08,11,27,01,,,,1.20,0.90,0.79*0A
$GPRMC,210445.000,A,4353.2793,N,07917.9870,W,0.09,182.26,240416,,,A*79
$GPVTG,182.26,T,,M,0.09,N,0.17,K,A*3D
$GPGGA,210446.000,4353.2793,N,07917.9870,W,1,09,0.90,203.2,M,-35.3,M,,*50
$GPGSA,A,3,30,09,07,16,28,08,11,27,01,,,,1.20,0.90,0.79*0A
$GPRMC,210446.000,A,4353.2793,N,07917.9870,W,0.02,177.44,240416,,,A*7F
$GPVTG,177.44,T,,M,0.02,N,0.03,K,A*3D
$GPGGA,210447.000,4353.2793,N,07917.9870,W,1,09,0.90,203.2,M,-35.3,M,,*51
$GPGSA,A,3,30,09,07,16,28,08,11,27,01,,,,1.20,0.90,0.79*0A
$GPRMC,210447.000,A,4353.2793,N,07917.9870,W,0.06,306.68,240416,,,A*70
$GPVTG,306.68,T,,M,0.06,N,0.12,K,A*33
$GPGGA,210448.000,4353.2793,N,07917.9870,W,1,09,0.90,203.2,M,-35.3,M,,*5E
$GPGSA,A,3,30,09,07,16,28,08,11,27,01,,,,1.20,0.90,0.79*0A
$GPGSV,3,1,12,07,80,259,23,08,66,059,38,30,52,305,28,11,44,157,37*78
$GPGSV,3,2,12,27,33,050,25,51,32,217,39,28,23,278,39,01,20,156,30*79
$GPGSV,3,3,12,09,18,211,30,16,09,083,24,13,08,328,,23,01,186,*74
$GPRMC,210448.000,A,4353.2793,N,07917.9870,W,0.18,221.60,240416,,,A*7C
$GPVTG,221.60,T,,M,0.18,N,0.34,K,A*34
$GPGGA,210449.000,4353.2793,N,07917.9870,W,1,09,0.90,203.2,M,-35.3,M,,*5F
$GPGSA,A,3,30,09,07,16,28,08,11,27,01,,,,1.20,0.90,0.79*0A
$GPRMC,210449.000,A,4353.2793,N,07917.9870,W,0.27,211.15,240416,,,A*70
$GPVTG,211.15,T,,M,0.27,N,0.50,K,A*3B
$GPGGA,210450.000,4353.2792,N,07917.9871,W,1,09,0.90,203.2,M,-35.3,M,,*57
$GPGSA,A,3,30,09,07,16,28,08,11,27,01,,,,1.20,0.90,0.79*0A
$GPRMC,210450.000,A,4353.2792,N,07917.9871,W,0.23,204.65,240416,,,A*7F
$GPVTG,204.65,T,,M,0.23,N,0.42,K,A*3F
$GPGGA,210451.000,4353.2792,N,07917.9871,W,1,09,0.90,203.2,M,-35.3,M,,*56
$GPGSA,A,3,30,09,07,16,28,08,11,27,01,,,,1.20,0.90,0.79*0A
$GPRMC,210451.000,A,4353.2792,N,07917.9871,W,0.17,131.51,240416,,,A*7B
$GPVTG,131.51,T,,M,0.17,N,0.31,K,A*3E
$GPGGA,210452.000,4353.2791,N,07917.9871,W,1,09,0.90,203.2,M,-35.3,M,,*56
$GPGSA,A,3,30,09,07,16,28,08,11,27,01,,,,1.20,0.90,0.79*0A
$GPRMC,210452.000,A,4353.2791,N,07917.9871,W,0.17,51.63,240416,,,A*4D
$GPVTG,51.63,T,,M,0.17,N,0.32,K,A*0B
$GPGGA,210453.000,4353.2792,N,07917.9870,W,1,09,0.90,203.2,M,-35.3,M,,*55
$GPGSA,A,3,30,09,07,16,28,08,11,27,01,,,,1.20,0.90,0.79*0A
$GPGSV,3,1,12,07,80,259,23,08,66,059,38,30,52,305,28,11,44,157,37*78
$GPGSV,3,2,12,27,33,050,26,51,32,217,38,28,23,278,40,01,20,156,30*75
$GPGSV,3,3,12,09,18,211,31,16,09,084,23,13,08,328,16,23,01,186,*72
$GPRMC,210453.000,A,4353.2792,N,07917.9870,W,0.14,296.69,240416,,,A*7E
$GPVTG,296.69,T,,M,0.14,N,0.27,K,A*3F
$GPGGA,210454.000,4353.2792,N,07917.9871,W,1,09,0.90,203.2,M,-35.3,M,,*53
$GPGSA,A,3,30,09,07,16,28,08,11,27,01,,,,1.20,0.90,0.79*0A
$GPRMC,210454.000,A,4353.2792,N,07917.9871,W,0.22,275.03,240416,,,A*7C
$GPVTG,275.03,T,,M,0.22,N,0.40,K,A*3A
$GPGGA,210455.000,4353.2792,N,07917.9872,W,1,09,0.90,203.2,M,-35.3,M,,*51
$GPGSA,A,3,30,09,07,16,28,08,11,27,01,,,,1.20,0.90,0.79*0A
$GPRMC,210455.000,A,4353.2792,N,07917.9872,W,0.24,348.08,240416,,,A*7C
$GPVTG,348.08,T,,M,0.24,N,0.44,K,A*3C
$GPGGA,210456.000,4353.2793,N,07917.9872,W,1,09,0.92,203.3,M,-35.3,M,,*50
$GPGSA,A,3,30,09,07,16,28,08,11,27,01,,,,1.60,0.92,1.30*00
$GPRMC,210456.000,A,4353.2793,N,07917.9872,W,0.28,29.57,240416,,,A*4C
$GPVTG,29.57,T,,M,0.28,N,0.51,K,A*0A
$GPGGA,210457.000,4353.2793,N,07917.9872,W,1,09,0.90,203.3,M,-35.3,M,,*53
$GPGSA,A,3,30,09,07,16,28,08,11,27,01,,,,1.20,0.90,0.79*0A
$GPRMC,210457.000,A,4353.2793,N,07917.9872,W,0.43,8.78,240416,,,A*7E
$GPVTG,8.78,T,,M,0.43,N,0.79,K,A*33
$GPGGA,210458.000,4353.2794,N,07917.9871,W,1,09,0.92,203.3,M,-35.3,M,,*5A
$GPGSA,A,3,30,09,07,16,28,08,11,27,01,,,,1.60,0.92,1.31*01
$GPGSV,3,1,12,07,80,259,23,08,66,059,38,30,52,305,27,11,44,157,37*77
$GPGSV,3,2,12,27,33,050,26,51,32,217,39,28,23,278,40,01,20,156,32*76
$GPGSV,3,3,12,09,18,211,32,16,09,084,23,13,08,328,,23,01,186,*76
$GPRMC,210458.000,A,4353.2794,N,07917.9871,W,0.26,17.47,240416,,,A*44
$GPVTG,17.47,T,,M,0.26,N,0.48,K,A*00
$GPGGA,210459.000,4353.2795,N,07917.9871,W,1,09,0.90,203.3,M,-35.3,M,,*58
$GPGSA,A,3,30,09,07,16,28,08,11,27,01,,,,1.20,0.90,0.79*0A
$GPRMC,210459.000,A,4353.2795,N,07917.9871,W,0.12,358.08,240416,,,A*70
$GPVTG,358.08,T,,M,0.12,N,0.21,K,A*3B
$GPGGA,210500.000,4353.2795,N,07917.9871,W,1,09,0.92,203.3,M,-35.3,M,,*57
$GPGSA,A,3,30,09,07,16,28,08,11,27,01,,,,1.60,0.92,1.30*00
$GPRMC,210500.000,A,4353.2795,N,07917.9871,W,0.02,117.07,240416,,,A*7A
$GPVTG,117.07,T,,M,0.02,N,0.03,K,A*3C
$GPGGA,210501.000,4353.2795,N,07917.9871,W,1,09,0.90,203.3,M,-35.3,M,,*54
$GPGSA,A,3,30,09,07,16,28,08,11,27,01,,,,1.20,0.90,0.79*0A
$GPRMC,210501.000,A,4353.2795,N,07917.9871,W,0.14,40.26,240416,,,A*4C
$GPVTG,40.26,T,,M,0.14,N,0.27,K,A*0D
$GPGGA,210502.000,4353.2796,N,07917.9871,W,1,09,0.90,203.3,M,-35.3,M,,*54
$GPGSA,A,3,30,09,07,16,28,08,11,27,01,,,,1.20,0.90,0.79*0A
$GPRMC,210502.000,A,4353.2796,N,07917.9871,W,0.22,100.12,240416,,,A*7B
$GPVTG,100.12,T,,M,0.22,N,0.41,K,A*3A
$GPGGA,210503.000,4353.2796,N,07917.9870,W,1,09,0.90,203.3,M,-35.3,M,,*54
$GPGSA,A,3,30,09,07,16,28,08,11,27,01,,,,1.20,0.90,0.79*0A
$GPGSV,3,1,11,07,80,259,23,08,66,059,38,30,52,305,26,11,44,157,37*75
$GPGSV,3,2,11,27,32,050,25,51,32,217,40,28,23,278,40,01,20,156,32*79
$GPGSV,3,3,11,09,18,211,32,16,09,084,24,13,08,328,*4D
$GPRMC,210503.000,A,4353.2796,N,07917.9870,W,0.23,50.85,240416,,,A*40
$GPVTG,50.85,T,,M,0.23,N,0.43,K,A*03
$GPGGA,210504.000,4353.2796,N,07917.9869,W,1,09,0.90,203.3,M,-35.3,M,,*5B
$GPGSA,A,3,30,09,07,16,28,08,11,27,01,,,,1.20,0.90,0.79*0A
$GPRMC,210504.000,A,4353.2796,N,07917.9869,W,0.26,38.95,240416,,,A*45
$GPVTG,38.95,T,,M,0.26,N,0.48,K,A*02
$GPGGA,210505.000,4353.2797,N,07917.9869,W,1,09,0.90,203.3,M,-35.3,M,,*5B
$GPGSA,A,3,30,09,07,16,28,08,11,27,01,,,,1.20,0.90,0.79*0A
$GPRMC,210505.000,A,4353.2797,N,07917.9869,W,0.30,5.87,240416,,,A*7F
$GPVTG,5.87,T,,M,0.30,N,0.56,K,A*37
$GPGGA,210506.000,4353.2798,N,07917.9869,W,1,09,0.92,203.3,M,-35.3,M,,*55
$GPGSA,A,3,30,09,07,16,28,08,11,27,01,,,,1.60,0.92,1.30*00
