$GPGGA,225417.086,,,,,0,00,,,M,,M,,*71
$GPGSA,A,1,,,,,,,,,,,,,,,*1E
$GPRMC,225417.086,V,,,,,0.00,0.00,140416,,,N*42
$GPVTG,0.00,T,,M,0.00,N,0.00,K,N*32
$GPGGA,225418.086,,,,,0,00,,,M,,M,,*7E
$GPGSA,A,1,,,,,,,,,,,,,,,*1E
$GPRMC,225418.086,V,,,,,0.00,0.00,140416,,,N*4D
$GPVTG,0.00,T,,M,0.00,N,0.00,K,N*32
$GPGGA,225419.086,,,,,0,00,,,M,,M,,*7F
$GPGSA,A,1,,,,,,,,,,,,,,,*1E
$GPRMC,225419.086,V,,,,,0.00,0.00,140416,,,N*4C
$GPVTG,0.00,T,,M,0.00,N,0.00,K,N*32
$GPGGA,225420.086,,,,,0,00,,,M,,M,,*75
$GPGSA,A,1,,,,,,,,,,,,,,,*1E
$GPRMC,225420.086,V,,,,,0.00,0.00,140416,,,N*46
$GPVTG,0.00,T,,M,0.00,N,0.00,K,N*32
$GPGGA,225421.086,,,,,0,00,,,M,,M,,*74
$GPGSA,A,1,,,,,,,,,,,,,,,*1E
$GPGSV,1,1,01,01,,,22*79
$GPRMC,225421.086,V,,,,,0.00,0.00,140416,,,N*47
$GPVTG,0.00,T,,M,0.00,N,0.00,K,N*32
$GPGGA,225422.086,,,,,0,00,,,M,,M,,*77
$GPGSA,A,1,,,,,,,,,,,,,,,*1E
$GPRMC,225422.086,V,,,,,0.00,0.00,140416,,,N*44
$GPVTG,0.00,T,,M,0.00,N,0.00,K,N*32
$GPGGA,225423.086,,,,,0,00,,,M,,M,,*76
$GPGSA,A,1,,,,,,,,,,,,,,,*1E
$GPRMC,225423.086,V,,,,,0.00,0.00,140416,,,N*45
$GPVTG,0.00,T,,M,0.00,N,0.00,K,N*32
$GPGGA,225424.086,,,,,0,00,,,M,,M,,*71
$GPGSA,A,1,,,,,,,,,,,,,,,*1E
$GPRMC,225424.086,V,,,,,0.00,0.00,140416,,,N*42
$GPVTG,0.00,T,,M,0.00,N,0.00,K,N*32
$GPGGA,225425.086,,,,,0,00,,,M,,M,,*70
$GPGSA,A,1,,,,,,,,,,,,,,,*1E
$GPRMC,225425.086,V,,,,,0.00,0.00,140416,,,N*43
$GPVTG,0.00,T,,M,0.00,N,0.00,K,N*32
$GPGGA,225426.086,,,,,0,00,,,M,,M,,*73
$GPGSA,A,1,,,,,,,,,,,,,,,*1E
$GPGSV,1,1,01,01,,,21*7A
$GPRMC,225426.086,V,,,,,0.00,0.00,140416,,,N*40
$GPVTG,0.00,T,,M,0.00,N,0.00,K,N*32
$GPGGA,225427.086,,,,,0,00,,,M,,M,,*72
$GPGSA,A,1,,,,,,,,,,,,,,,*1E
$GPRMC,225427.086,V,,,,,0.00,0.00,140416,,,N*41
$GPVTG,0.00,T,,M,0.00,N,0.00,K,N*32
$GPGGA,225428.086,,,,,0,00,,,M,,M,,*7D
$GPGSA,A,1,,,,,,,,,,,,,,,*1E
$GPRMC,225428.086,V,,,,,0.00,0.00,140416,,,N*4E
$GPVTG,0.00,T,,M,0.00,N,0.00,K,N*32
$GPGGA,225429.086,,,,,0,00,,,M,,M,,*7C
$GPGSA,A,1,,,,,,,,,,,,,,,*1E
$GPRMC,225429.086,V,,,,,0.00,0.00,140416,,,N*4F
$GPVTG,0.00,T,,M,0.00,N,0.00,K,N*32
$GPGGA,225430.086,,,,,0,00,,,M,,M,,*74
$GPGSA,A,1,,,,,,,,,,,,,,,*1E
$GPRMC,225430.086,V,,,,,0.00,0.00,140416,,,N*47
$GPVTG,0.00,T,,M,0.00,N,0.00,K,N*32
$GPGGA,225431.086,,,,,0,00,,,M,,M,,*75
$GPGSA,A,1,,,,,,,,,,,,,,,*1E
$GPGSV,1,1,01,01,,,21*7A
$GPRMC,225431.086,V,,,,,0.00,0.00,140416,,,N*46
$GPVTG,0.00,T,,M,0.00,N,0.00,K,N*32
$GPGGA,225432.086,,,,,0,00,,,M,,M,,*76
$GPGSA,A,1,,,,,,,,,,,,,,,*1E
$GPRMC,225432.086,V,,,,,0.00,0.00,140416,,,N*45
$GPVTG,0.00,T,,M,0.00,N,0.00,K,N*32
$GPGGA,225433.086,,,,,0,00,,,M,,M,,*77
$GPGSA,A,1,,,,,,,,,,,,,,,*1E
$GPRMC,225433.086,V,,,,,0.00,0.00,140416,,,N*44
$GPVTG,0.00,T,,M,0.00,N,0.00,K,N*32
$GPGGA,225434.086,,,,,0,00,,,M,,M,,*70
$GPGSA,A,1,,,,,,,,,,,,,,,*1E
$GPRMC,225434.086,V,,,,,0.00,0.00,140416,,,N*43
$GPVTG,0.00,T,,M,0.00,N,0.00,K,N*32
$GPGGA,225435.086,,,,,0,00,,,M,,M,,*71
$GPGSA,A,1,,,,,,,,,,,,,,,*1E
$GPRMC,225435.086,V,,,,,0.00,0.00,140416,,,N*42
$GPVTG,0.00,T,,M,0.00,N,0.00,K,N*32
$GPGGA,225436.086,,,,,0,00,,,M,,M,,*72
$GPGSA,A,1,,,,,,,,,,,,,,,*1E
$GPGSV,1,1,01,01,,,22*79
$GPRMC,225436.086,V,,,,,0.00,0.00,140416,,,N*41
$GPVTG,0.00,T,,M,0.00,N,0.00,K,N*32
$GPGGA,225437.086,,,,,0,00,,,M,,M,,*73
$GPGSA,A,1,,,,,,,,,,,,,,,*1E
$GPRMC,225437.086,V,,,,,0.00,0.00,140416,,,N*40
$GPVTG,0.00,T,,M,0.00,N,0.00,K,N*32
$GPGGA,225438.086,,,,,0,00,,,M,,M,,*7C
$GPGSA,A,1,,,,,,,,,,,,,,,*1E
$GPRMC,225438.086,V,,,,,0.00,0.00,140416,,,N*4F
$GPVTG,0.00,T,,M,0.00,N,0.00,K,N*32
$GPGGA,225439.086,,,,,0,00,,,M,,M,,*7D
$GPGSA,A,1,,,,,,,,,,,,,,,*1E
$GPRMC,225439.086,V,,,,,0.00,0.00,140416,,,N*4E
$GPVTG,0.00,T,,M,0.00,N,0.00,K,N*32
$GPGGA,225440.086,,,,,0,00,,,M,,M,,*73
$GPGSA,A,1,,,,,,,,,,,,,,,*1E
$GPRMC,225440.086,V,,,,,0.00,0.00,140416,,,N*40
$GPVTG,0.00,T,,M,0.00,N,0.00,K,N*32
$GPGGA,225441.086,,,,,0,00,,,M,,M,,*72
$GPGSA,A,1,,,,,,,,,,,,,,,*1E
$GPGSV,1,1,01,01,,,18*70
$GPRMC,225441.086,V,,,,,0.00,0.00,140416,,,N*41
$GPVTG,0.00,T,,M,0.00,N,0.00,K,N*32
$GPGGA,225442.086,,,,,0,00,,,M,,M,,*71
$GPGSA,A,1,,,,,,,,,,,,,,,*1E
$GPRMC,225442.086,V,,,,,0.00,0.00,140416,,,N*42
$GPVTG,0.00,T,,M,0.00,N,0.00,K,N*32
$GPGGA,225443.086,,,,,0,00,,,M,,M,,*70
$GPGSA,A,1,,,,,,,,,,,,,,,*1E
$GPRMC,225443.086,V,,,,,0.00,0.00,140416,,,N*43
$GPVTG,0.00,T,,M,0.00,N,0.00,K,N*32
$GPGGA,225444.086,,,,,0,00,,,M,,M,,*77
$GPGSA,A,1,,,,,,,,,,,,,,,*1E
$GPRMC,225444.086,V,,,,,0.00,0.00,140416,,,N*44
$GPVTG,0.00,T,,M,0.00,N,0.00,K,N*32
$GPGGA,225445.086,,,,,0,00,,,M,,M,,*76
$GPGSA,A,1,,,,,,,,,,,,,,,*1E
$GPRMC,225445.086,V,,,,,0.00,0.00,140416,,,N*45
$GPVTG,0.00,T,,M,0.00,N,0.00,K,N*32
$GPGGA,225446.086,,,,,0,00,,,M,,M,,*75
$GPGSA,A,1,,,,,,,,,,,,,,,*1E
$GPGSV,1,1,01,01,,,21*7A
$GPRMC,225446.086,V,,,,,0.00,0.00,140416,,,N*46
$GPVTG,0.00,T,,M,0.00,N,0.00,K,N*32
$GPGGA,225447.086,,,,,0,00,,,M,,M,,*74
$GPGSA,A,1,,,,,,,,,,,,,,,*1E
$GPRMC,225447.086,V,,,,,0.00,0.00,140416,,,N*47
$GPVTG,0.00,T,,M,0.00,N,0.00,K,N*32
$GPGGA,225448.086,,,,,0,00,,,M,,M,,*7B
$GPGSA,A,1,,,,,,,,,,,,,,,*1E
$GPRMC,225448.086,V,,,,,0.00,0.00,140416,,,N*48
$GPVTG,0.00,T,,M,0.00,N,0.00,K,N*32
$GPGGA,225449.086,,,,,0,00,,,M,,M,,*7A
$GPGSA,A,1,,,,,,,,,,,,,,,*1E
$GPRMC,225449.086,V,,,,,0.00,0.00,140416,,,N*49
$GPVTG,0.00,T,,M,0.00,N,0.00,K,N*32
$GPGGA,225450.086,,,,,0,00,,,M,,M,,*72
$GPGSA,A,1,,,,,,,,,,,,,,,*1E
$GPRMC,225450.086,V,,,,,0.00,0.00,140416,,,N*41
$GPVTG,0.00,T,,M,0.00,N,0.00,K,N*32
$GPGGA,225451.086,,,,,0,00,,,M,,M,,*73
$GPGSA,A,1,,,,,,,,,,,,,,,*1E
$GPGSV,1,1,01,01,,,21*7A
$GPRMC,225451.086,V,,,,,0.00,0.00,140416,,,N*40
$GPVTG,0.00,T,,M,0.00,N,0.00,K,N*32
$GPGGA,225452.086,,,,,0,00,,,M,,M,,*70
$GPGSA,A,1,,,,,,,,,,,,,,,*1E
$GPRMC,225452.086,V,,,,,0.00,0.00,140416,,,N*43
$GPVTG,0.00,T,,M,0.00,N,0.00,K,N*32
$GPGGA,225453.086,,,,,0,00,,,M,,M,,*71
$GPGSA,A,1,,,,,,,,,,,,,,,*1E
$GPRMC,225453.086,V,,,,,0.00,0.00,140416,,,N*42
$GPVTG,0.00,T,,M,0.00,N,0.00,K,N*32
$GPGGA,225454.086,,,,,0,00,,,M,,M,,*76
$GPGSA,A,1,,,,,,,,,,,,,,,*1E
$GPRMC,225454.086,V,,,,,0.00,0.00,140416,,,N*45
$GPVTG,0.00,T,,M,0.00,N,0.00,K,N*32
$GPGGA,225455.086,,,,,0,00,,,M,,M,,*77
$GPGSA,A,1,,,,,,,,,,,,,,,*1E
$GPRMC,225455.086,V,,,,,0.00,0.00,140416,,,N*44
$GPVTG,0.00,T,,M,0.00,N,0.00,K,N*32
$GPGGA,225456.086,,,,,0,00,,,M,,M,,*74
$GPGSA,A,1,,,,,,,,,,,,,,,*1E
$GPGSV,1,1,01,01,,,31*7B
$GPRMC,225456.086,V,,,,,0.00,0.00,140416,,,N*47
$GPVTG,0.00,T,,M,0.00,N,0.00,K,N*32
$GPGGA,225457.086,,,,,0,00,,,M,,M,,*75
$GPGSA,A,1,,,,,,,,,,,,,,,*1E
$GPRMC,225457.086,V,,,,,0.00,0.00,140416,,,N*46
$GPVTG,0.00,T,,M,0.00,N,0.00,K,N*32
$GPGGA,225458.086,,,,,0,00,,,M,,M,,*7A
$GPGSA,A,1,,,,,,,,,,,,,,,*1E
$GPRMC,225458.086,V,,,,,0.00,0.00,140416,,,N*49
$GPVTG,0.00,T,,M,0.00,N,0.00,K,N*32
$GPGGA,225459.086,,,,,0,00,,,M,,M,,*7B
$GPGSA,A,1,,,,,,,,,,,,,,,*1E
$GPRMC,225459.086,V,,,,,0.00,0.00,140416,,,N*48
$GPVTG,0.00,T,,M,0.00,N,0.00,K,N*32
$GPGGA,225500.086,,,,,0,00,,,M,,M,,*76
$GPGSA,A,1,,,,,,,,,,,,,,,*1E
$GPRMC,225500.086,V,,,,,0.00,0.00,140416,,,N*45
$GPVTG,0.00,T,,M,0.00,N,0.00,K,N*32
$GPGGA,225501.086,,,,,0,00,,,M,,M,,*77
$GPGSA,A,1,,,,,,,,,,,,,,,*1E
$GPGSV,1,1,01,01,,,26*7D
$GPRMC,225501.086,V,,,,,0.00,0.00,140416,,,N*44
$GPVTG,0.00,T,,M,0.00,N,0.00,K,N*32
$GPGGA,225502.086,,,,,0,00,,,M,,M,,*74
$GPGSA,A,1,,,,,,,,,,,,,,,*1E
$GPRMC,225502.086,V,,,,,0.00,0.00,140416,,,N*47
$GPVTG,0.00,T,,M,0.00,N,0.00,K,N*32
$GPGGA,225503.086,,,,,0,00,,,M,,M,,*75
$GPGSA,A,1,,,,,,,,,,,,,,,*1E
$GPRMC,225503.086,V,,,,,0.00,0.00,140416,,,N*46
$GPVTG,0.00,T,,M,0.00,N,0.00,K,N*32
$GPGGA,225504.086,,,,,0,00,,,M,,M,,*72
$GPGSA,A,1,,,,,,,,,,,,,,,*1E
$GPRMC,225504.086,V,,,,,0.00,0.00,140416,,,N*41
$GPVTG,0.00,T,,M,0.00,N,0.00,K,N*32
$GPGGA,225505.086,,,,,0,00,,,M,,M,,*73
$GPGSA,A,1,,,,,,,,,,,,,,,*1E
$GPRMC,225505.086,V,,,,,0.00,0.00,140416,,,N*40
$GPVTG,0.00,T,,M,0.00,N,0.00,K,N*32
$GPGGA,225506.086,,,,,0,00,,,M,,M,,*70
$GPGSA,A,1,,,,,,,,,,,,,,,*1E
$GPGSV,1,1,01,01,,,24*7F
$GPRMC,225506.086,V,,,,,0.00,0.00,140416,,,N*43
$GPVTG,0.00,T,,M,0.00,N,0.00,K,N*32
$GPGGA,225507.086,,,,,0,00,,,M,,M,,*71
$GPGSA,A,1,,,,,,,,,,,,,,,*1E
$GPRMC,225507.086,V,,,,,0.00,0.00,140416,,,N*42
$GPVTG,0.00,T,,M,0.00,N,0.00,K,N*32
$GPGGA,225508.086,,,,,0,00,,,M,,M,,*7E
$GPGSA,A,1,,,,,,,,,,,,,,,*1E
$GPRMC,225508.086,V,,,,,0.00,0.00,140416,,,N*4D
$GPVTG,0.00,T,,M,0.00,N,0.00,K,N*32
$GPGGA,225509.086,,,,,0,00,,,M,,M,,*7F
$GPGSA,A,1,,,,,,,,,,,,,,,*1E
$GPRMC,225509.086,V,,,,,0.00,0.00,140416,,,N*4C
$GPVTG,0.00,T,,M,0.00,N,0.00,K,N*32
$GPGGA,225510.086,,,,,0,00,,,M,,M,,*77
$GPGSA,A,1,,,,,,,,,,,,,,,*1E
$GPRMC,225510.086,V,,,,,0.00,0.00,140416,,,N*44
$GPVTG,0.00,T,,M,0.00,N,0.00,K,N*32
$GPGGA,225511.086,,,,,0,00,,,M,,M,,*76
$GPGSA,A,1,,,,,,,,,,,,,,,*1E
$GPGSV,1,1,01,01,,,26*7D
$GPRMC,225511.086,V,,,,,0.00,0.00,140416,,,N*45
$GPVTG,0.00,T,,M,0.00,N,0.00,K,N*32
$GPGGA,225512.086,,,,,0,00,,,M,,M,,*75
$GPGSA,A,1,,,,,,,,,,,,,,,*1E
$GPRMC,225512.086,V,,,,,0.00,0.00,140416,,,N*46
$GPVTG,0.00,T,,M,0.00,N,0.00,K,N*32
$GPGGA,225513.086,,,,,0,00,,,M,,M,,*74
$GPGSA,A,1,,,,,,,,,,,,,,,*1E
$GPRMC,225513.086,V,,,,,0.00,0.00,140416,,,N*47
$GPVTG,0.00,T,,M,0.00,N,0.00,K,N*32
$GPGGA,225514.086,,,,,0,00,,,M,,M,,*73
$GPGSA,A,1,,,,,,,,,,,,,,,*1E
$GPRMC,225514.086,V,,,,,0.00,0.00,140416,,,N*40
$GPVTG,0.00,T,,M,0.00,N,0.00,K,N*32
$GPGGA,225515.086,,,,,0,00,,,M,,M,,*72
$GPGSA,A,1,,,,,,,,,,,,,,,*1E
$GPRMC,225515.086,V,,,,,0.00,0.00,140416,,,N*41
$GPVTG,0.00,T,,M,0.00,N,0.00,K,N*32
$GPGGA,225516.086,,,,,0,00,,,M,,M,,*71
$GPGSA,A,1,,,,,,,,,,,,,,,*1E
$GPGSV,1,1,01,01,,,27*7C
$GPRMC,225516.086,V,,,,,0.00,0.00,140416,,,N*42
$GPVTG,0.00,T,,M,0.00,N,0.00,K,N*32
$GPGGA,225517.086,,,,,0,00,,,M,,M,,*70
$GPGSA,A,1,,,,,,,,,,,,,,,*1E
$GPRMC,225517.086,V,,,,,0.00,0.00,140416,,,N*43
$GPVTG,0.00,T,,M,0.00,N,0.00,K,N*32
$GPGGA,225518.086,,,,,0,00,,,M,,M,,*7F
$GPGSA,A,1,,,,,,,,,,,,,,,*1E
$GPRMC,225518.086,V,,,,,0.00,0.00,140416,,,N*4C
$GPVTG,0.00,T,,M,0.00,N,0.00,K,N*32
$GPGGA,225519.086,,,,,0,00,,,M,,M,,*7E
$GPGSA,A,1,,,,,,,,,,,,,,,*1E
$GPRMC,225519.086,V,,,,,0.00,0.00,140416,,,N*4D
$GPVTG,0.00,T,,M,0.00,N,0.00,K,N*32
$GPGGA,225520.086,,,,,0,00,,,M,,M,,*74
$GPGSA,A,1,,,,,,,,,,,,,,,*1E
$GPRMC,225520.086,V,,,,,0.00,0.00,140416,,,N*47
$GPVTG,0.00,T,,M,0.00,N,0.00,K,N*32
$GPGGA,225521.086,,,,,0,00,,,M,,M,,*75
$GPGSA,A,1,,,,,,,,,,,,,,,*1E
$GPGSV,1,1,01,01,,,27*7C
$GPRMC,225521.086,V,,,,,0.00,0.00,140416,,,N*46
$GPVTG,0.00,T,,M,0.00,N,0.00,K,N*32
$GPGGA,225522.086,,,,,0,00,,,M,,M,,*76
$GPGSA,A,1,,,,,,,,,,,,,,,*1E
$GPRMC,225522.086,V,,,,,0.00,0.00,140416,,,N*45
$GPVTG,0.00,T,,M,0.00,N,0.00,K,N*32
$GPGGA,225523.086,,,,,0,00,,,M,,M,,*77
$GPGSA,A,1,,,,,,,,,,,,,,,*1E
$GPRMC,225523.086,V,,,,,0.00,0.00,140416,,,N*44
$GPVTG,0.00,T,,M,0.00,N,0.00,K,N*32
$GPGGA,225524.086,,,,,0,00,,,M,,M,,*70
$GPGSA,A,1,,,,,,,,,,,,,,,*1E
$GPRMC,225524.086,V,,,,,0.00,0.00,140416,,,N*43
$GPVTG,0.00,T,,M,0.00,N,0.00,K,N*32
$GPGGA,225525.086,,,,,0,00,,,M,,M,,*71
$GPGSA,A,1,,,,,,,,,,,,,,,*1E
$GPRMC,225525.086,V,,,,,0.00,0.00,140416,,,N*42
$GPVTG,0.00,T,,M,0.00,N,0.00,K,N*32
$GPGGA,225526.086,,,,,0,00,,,M,,M,,*72
$GPGSA,A,1,,,,,,,,,,,,,,,*1E
$GPGSV,1,1,01,01,,,29*72
$GPRMC,225526.086,V,,,,,0.00,0.00,140416,,,N*41
$GPVTG,0.00,T,,M,0.00,N,0.00,K,N*32
$GPGGA,225527.086,,,,,0,00,,,M,,M,,*73
$GPGSA,A,1,,,,,,,,,,,,,,,*1E
$GPRMC,225527.086,V,,,,,0.00,0.00,140416,,,N*40
$GPVTG,0.00,T,,M,0.00,N,0.00,K,N*32
$GPGGA,225528.086,,,,,0,00,,,M,,M,,*7C
$GPGSA,A,1,,,,,,,,,,,,,,,*1E
$GPRMC,225528.086,V,,,,,0.00,0.00,140416,,,N*4F
$GPVTG,0.00,T,,M,0.00,N,0.00,K,N*32
$GPGGA,225529.086,,,,,0,00,,,M,,M,,*7D
$GPGSA,A,1,,,,,,,,,,,,,,,*1E
$GPRMC,225529.086,V,,,,,0.00,0.00,140416,,,N*4E
$GPVTG,0.00,T,,M,0.00,N,0.00,K,N*32
$GPGGA,225530.086,,,,,0,00,,,M,,M,,*75
$GPGSA,A,1,,,,,,,,,,,,,,,*1E
$GPRMC,225530.086,V,,,,,0.00,0.00,140416,,,N*46
$GPVTG,0.00,T,,M,0.00,N,0.00,K,N*32
$GPGGA,225531.086,,,,,0,00,,,M,,M,,*74
$GPGSA,A,1,,,,,,,,,,,,,,,*1E
$GPGSV,1,1,01,01,,,29*72
$GPRMC,225531.086,V,,,,,0.00,0.00,140416,,,N*47
$GPVTG,0.00,T,,M,0.00,N,0.00,K,N*32
$GPGGA,225532.086,,,,,0,00,,,M,,M,,*77
$GPGSA,A,1,,,,,,,,,,,,,,,*1E
$GPRMC,225532.086,V,,,,,0.00,0.00,140416,,,N*44
$GPVTG,0.00,T,,M,0.00,N,0.00,K,N*32
$GPGGA,225533.086,,,,,0,00,,,M,,M,,*76
$GPGSA,A,1,,,,,,,,,,,,,,,*1E
$GPRMC,225533.086,V,,,,,0.00,0.00,140416,,,N*45
$GPVTG,0.00,T,,M,0.00,N,0.00,K,N*32
$GPGGA,225534.086,,,,,0,00,,,M,,M,,*71
$GPGSA,A,1,,,,,,,,,,,,,,,*1E
$GPRMC,225534.086,V,,,,,0.00,0.00,140416,,,N*42
$GPVTG,0.00,T,,M,0.00,N,0.00,K,N*32
$GPGGA,225535.086,,,,,0,00,,,M,,M,,*70
$GPGSA,A,1,,,,,,,,,,,,,,,*1E
$GPRMC,225535.086,V,,,,,0.00,0.00,140416,,,N*43
$GPVTG,0.00,T,,M,0.00,N,0.00,K,N*32
$GPGGA,225536.086,,,,,0,00,,,M,,M,,*73
$GPGSA,A,1,,,,,,,,,,,,,,,*1E
$GPGSV,1,1,01,01,,,38*72
$GPRMC,225536.086,V,,,,,0.00,0.00,140416,,,N*40
$GPVTG,0.00,T,,M,0.00,N,0.00,K,N*32
$GPGGA,225537.086,,,,,0,00,,,M,,M,,*72
$GPGSA,A,1,,,,,,,,,,,,,,,*1E
$GPRMC,225537.086,V,,,,,0.00,0.00,140416,,,N*41
$GPVTG,0.00,T,,M,0.00,N,0.00,K,N*32
$GPGGA,225538.086,,,,,0,00,,,M,,M,,*7D
$GPGSA,A,1,,,,,,,,,,,,,,,*1E
$GPRMC,225538.086,V,,,,,0.00,0.00,140416,,,N*4E
$GPVTG,0.00,T,,M,0.00,N,0.00,K,N*32
$GPGGA,225539.086,,,,,0,00,,,M,,M,,*7C
$GPGSA,A,1,,,,,,,,,,,,,,,*1E
$GPRMC,225539.086,V,,,,,0.00,0.00,140416,,,N*4F
$GPVTG,0.00,T,,M,0.00,N,0.00,K,N*32
$GPGGA,225540.086,,,,,0,00,,,M,,M,,*72
$GPGSA,A,1,,,,,,,,,,,,,,,*1E
$GPRMC,225540.086,V,,,,,0.00,0.00,140416,,,N*41
$GPVTG,0.00,T,,M,0.00,N,0.00,K,N*32
$GPGGA,225541.086,,,,,0,00,,,M,,M,,*73
$GPGSA,A,1,,,,,,,,,,,,,,,*1E
$GPGSV,1,1,01,01,,,29*72
$GPRMC,225541.086,V,,,,,0.00,0.00,140416,,,N*40
$GPVTG,0.00,T,,M,0.00,N,0.00,K,N*32
$GPGGA,225542.086,,,,,0,00,,,M,,M,,*70
$GPGSA,A,1,,,,,,,,,,,,,,,*1E
$GPRMC,225542.086,V,,,,,0.00,0.00,140416,,,N*43
$GPVTG,0.00,T,,M,0.00,N,0.00,K,N*32
$GPGGA,225543.086,,,,,0,00,,,M,,M,,*71
$GPGSA,A,1,,,,,,,,,,,,,,,*1E
$GPRMC,225543.086,V,,,,,0.00,0.00,140416,,,N*42
$GPVTG,0.00,T,,M,0.00,N,0.00,K,N*32
$GPGGA,225544.086,,,,,0,00,,,M,,M,,*76
$GPGSA,A,1,,,,,,,,,,,,,,,*1E
$GPRMC,225544.086,V,,,,,0.00,0.00,140416,,,N*45
$GPVTG,0.00,T,,M,0.00,N,0.00,K,N*32
$GPGGA,225545.086,,,,,0,00,,,M,,M,,*77
$GPGSA,A,1,,,,,,,,,,,,,,,*1E
$GPRMC,225545.086,V,,,,,0.00,0.00,140416,,,N*44
$GPVTG,0.00,T,,M,0.00,N,0.00,K,N*32
$GPGGA,225546.086,,,,,0,00,,,M,,M,,*74
$GPGSA,A,1,,,,,,,,,,,,,,,*1E
$GPGSV,1,1,02,01,,,40,08,,,39*7C
$GPRMC,225546.086,V,,,,,0.00,0.00,140416,,,N*47
$GPVTG,0.00,T,,M,0.00,N,0.00,K,N*32
$GPGGA,225547.086,,,,,0,00,,,M,,M,,*75
$GPGSA,A,1,,,,,,,,,,,,,,,*1E
$GPRMC,225547.086,V,,,,,0.00,0.00,140416,,,N*46
$GPVTG,0.00,T,,M,0.00,N,0.00,K,N*32
$GPGGA,225548.086,,,,,0,00,,,M,,M,,*7A
$GPGSA,A,1,,,,,,,,,,,,,,,*1E
$GPRMC,225548.086,V,,,,,0.00,0.00,140416,,,N*49
$GPVTG,0.00,T,,M,0.00,N,0.00,K,N*32
$GPGGA,225549.086,,,,,0,00,,,M,,M,,*7B
$GPGSA,A,1,,,,,,,,,,,,,,,*1E
$GPRMC,225549.086,V,,,,,0.00,0.00,140416,,,N*48
$GPVTG,0.00,T,,M,0.00,N,0.00,K,N*32
$GPGGA,225550.086,,,,,0,00,,,M,,M,,*73
$GPGSA,A,1,,,,,,,,,,,,,,,*1E
$GPRMC,225550.086,V,,,,,0.00,0.00,140416,,,N*40
$GPVTG,0.00,T,,M,0.00,N,0.00,K,N*32
$GPGGA,225551.086,,,,,0,00,,,M,,M,,*72
$GPGSA,A,1,,,,,,,,,,,,,,,*1E
$GPGSV,1,1,03,01,,,42,08,,,37,30,,,39*78
$GPRMC,225551.086,V,,,,,0.00,0.00,140416,,,N*41
$GPVTG,0.00,T,,M,0.00,N,0.00,K,N*32
$GPGGA,225552.086,,,,,0,00,,,M,,M,,*71
$GPGSA,A,1,,,,,,,,,,,,,,,*1E
$GPRMC,225552.086,V,,,,,0.00,0.00,140416,,,N*42
$GPVTG,0.00,T,,M,0.00,N,0.00,K,N*32
$GPGGA,225553.086,,,,,0,00,,,M,,M,,*70
$GPGSA,A,1,,,,,,,,,,,,,,,*1E
$GPRMC,225553.086,V,,,,,0.00,0.00,140416,,,N*43
$GPVTG,0.00,T,,M,0.00,N,0.00,K,N*32
$GPGGA,225554.086,,,,,0,00,,,M,,M,,*77
$GPGSA,A,1,,,,,,,,,,,,,,,*1E
$GPRMC,225554.086,V,,,,,0.00,0.00,140416,,,N*44
$GPVTG,0.00,T,,M,0.00,N,0.00,K,N*32
$GPGGA,225555.086,,,,,0,00,,,M,,M,,*76
$GPGSA,A,1,,,,,,,,,,,,,,,*1E
$GPRMC,225555.086,V,,,,,0.00,0.00,140416,,,N*45
$GPVTG,0.00,T,,M,0.00,N,0.00,K,N*32
$GPGGA,225555.305,,,,,0,00,,,M,,M,,*7E
$GPGSA,A,1,,,,,,,,,,,,,,,*1E
$GPGSV,1,1,03,01,,,41,08,,,39,30,,,38*74
$GPRMC,225555.305,V,,,,,0.00,0.00,140416,,,N*4D
$GPVTG,0.00,T,,M,0.00,N,0.00,K,N*32
$GPGGA,225556.305,,,,,0,00,,,M,,M,,*7D
$GPGSA,A,1,,,,,,,,,,,,,,,*1E
$GPRMC,225556.305,V,,,,,0.00,0.00,140416,,,N*4E
$GPVTG,0.00,T,,M,0.00,N,0.00,K,N*32
$GPGGA,225557.305,,,,,0,00,,,M,,M,,*7C
$GPGSA,A,1,,,,,,,,,,,,,,,*1E
$GPRMC,225557.305,V,,,,,0.00,0.00,140416,,,N*4F
$GPVTG,0.00,T,,M,0.00,N,0.00,K,N*32
$GPGGA,225558.305,,,,,0,00,,,M,,M,,*73
$GPGSA,A,1,,,,,,,,,,,,,,,*1E
$GPRMC,225558.305,V,,,,,0.00,0.00,140416,,,N*40
$GPVTG,0.00,T,,M,0.00,N,0.00,K,N*32
$GPGGA,225559.305,,,,,0,00,,,M,,M,,*72
$GPGSA,A,1,,,,,,,,,,,,,,,*1E
$GPRMC,225559.305,V,,,,,0.00,0.00,140416,,,N*41
$GPVTG,0.00,T,,M,0.00,N,0.00,K,N*32
$GPGGA,225600.305,,,,,0,00,,,M,,M,,*7D
$GPGSA,A,1,,,,,,,,,,,,,,,*1E
$GPGSV,2,1,05,01,,,41,08,,,39,11,,,41,30,,,40*7B
$GPGSV,2,2,05,28,,,43*71
$GPRMC,225600.305,V,,,,,0.00,0.00,140416,,,N*4E
$GPVTG,0.00,T,,M,0.00,N,0.00,K,N*32
$GPGGA,225601.086,,,,,0,00,,,M,,M,,*74
$GPGSA,A,1,,,,,,,,,,,,,,,*1E
$GPRMC,225601.086,V,,,,,0.00,0.00,140416,,,N*47
$GPVTG,0.00,T,,M,0.00,N,0.00,K,N*32
$GPGGA,225601.305,,,,,0,00,,,M,,M,,*7C
$GPGSA,A,1,,,,,,,,,,,,,,,*1E
$GPRMC,225601.305,V,,,,,0.00,0.00,140416,,,N*4F
$GPVTG,0.00,T,,M,0.00,N,0.00,K,N*32
$GPGGA,225602.305,,,,,0,00,,,M,,M,,*7F
$GPGSA,A,1,,,,,,,,,,,,,,,*1E
$GPRMC,225602.305,V,,,,,0.00,0.00,140416,,,N*4C
$GPVTG,0.00,T,,M,0.00,N,0.00,K,N*32
$GPGGA,225603.305,,,,,0,00,,,M,,M,,*7E
$GPGSA,A,1,,,,,,,,,,,,,,,*1E
$GPRMC,225603.305,V,,,,,0.00,0.00,140416,,,N*4D
$GPVTG,0.00,T,,M,0.00,N,0.00,K,N*32
$GPGGA,225604.305,,,,,0,00,,,M,,M,,*79
$GPGSA,A,1,,,,,,,,,,,,,,,*1E
$GPGSV,2,1,06,01,,,42,08,,,39,11,,,39,30,,,40*74
$GPGSV,2,2,06,28,,,44,07,,,32*73
$GPRMC,225604.305,V,,,,,0.00,0.00,140416,,,N*4A
$GPVTG,0.00,T,,M,0.00,N,0.00,K,N*32
$GPGGA,225605.305,,,,,0,00,,,M,,M,,*78
$GPGSA,A,1,,,,,,,,,,,,,,,*1E
$GPRMC,225605.305,V,,,,,0.00,0.00,140416,,,N*4B
$GPVTG,0.00,T,,M,0.00,N,0.00,K,N*32
$GPGGA,225606.305,,,,,0,00,,,M,,M,,*7B
$GPGSA,A,1,,,,,,,,,,,,,,,*1E
$GPRMC,225606.305,V,,,,,0.00,0.00,140416,,,N*48
$GPVTG,0.00,T,,M,0.00,N,0.00,K,N*32
$GPGGA,225607.092,,,,,0,00,,,M,,M,,*77
$GPGSA,A,1,,,,,,,,,,,,,,,*1E
$GPRMC,225607.092,V,,,,,0.00,0.00,140416,,,N*44
$GPVTG,0.00,T,,M,0.00,N,0.00,K,N*32
$GPGGA,225608.092,,,,,0,00,,,M,,M,,*78
$GPGSA,A,1,,,,,,,,,,,,,,,*1E
$GPRMC,225608.092,V,,,,,0.00,0.00,140416,,,N*4B
$GPVTG,0.00,T,,M,0.00,N,0.00,K,N*32
$GPGGA,225609.092,,,,,0,00,,,M,,M,,*79
$GPGSA,A,1,,,,,,,,,,,,,,,*1E
$GPGSV,2,1,06,01,,,42,08,,,39,11,,,39,30,,,40*74
$GPGSV,2,2,06,28,,,44,07,,,31*70
$GPRMC,225609.092,V,,,,,0.00,0.00,140416,,,N*4A
$GPVTG,0.00,T,,M,0.00,N,0.00,K,N*32
$GPGGA,225610.092,,,,,0,00,,,M,,M,,*71
$GPGSA,A,1,,,,,,,,,,,,,,,*1E
$GPRMC,225610.092,V,,,,,0.00,0.00,140416,,,N*42
$GPVTG,0.00,T,,M,0.00,N,0.00,K,N*32
$GPGGA,225611.092,,,,,0,00,,,M,,M,,*70
$GPGSA,A,1,,,,,,,,,,,,,,,*1E
$GPRMC,225611.092,V,,,,,0.00,0.00,140416,,,N*43
$GPVTG,0.00,T,,M,0.00,N,0.00,K,N*32
$GPGGA,225612.092,,,,,0,00,,,M,,M,,*73
$GPGSA,A,1,,,,,,,,,,,,,,,*1E
$GPRMC,225612.092,V,,,,,0.00,0.00,140416,,,N*40
$GPVTG,0.00,T,,M,0.00,N,0.00,K,N*32
$GPGGA,225613.086,,,,,0,00,,,M,,M,,*77
$GPGSA,A,1,,,,,,,,,,,,,,,*1E
$GPRMC,225613.086,V,,,,,0.00,0.00,140416,,,N*44
$GPVTG,0.00,T,,M,0.00,N,0.00,K,N*32
$GPGGA,225613.306,,,,,0,00,,,M,,M,,*7C
$GPGSA,A,1,,,,,,,,,,,,,,,*1E
$GPGSV,2,1,06,01,,,42,08,,,39,11,,,39,30,,,40*74
$GPGSV,2,2,06,28,,,44,07,,,31*70
$GPRMC,225613.306,V,,,,,0.00,0.00,140416,,,N*4F
$GPVTG,0.00,T,,M,0.00,N,0.00,K,N*32
$GPGGA,225614.306,,,,,0,00,,,M,,M,,*7B
$GPGSA,A,1,,,,,,,,,,,,,,,*1E
$GPRMC,225614.306,V,,,,,0.00,0.00,140416,,,N*48
$GPVTG,0.00,T,,M,0.00,N,0.00,K,N*32
$GPGGA,225615.306,,,,,0,00,,,M,,M,,*7A
$GPGSA,A,1,,,,,,,,,,,,,,,*1E
$GPRMC,225615.306,V,,,,,0.00,0.00,140416,,,N*49
$GPVTG,0.00,T,,M,0.00,N,0.00,K,N*32
$GPGGA,225616.306,,,,,0,00,,,M,,M,,*79
$GPGSA,A,1,,,,,,,,,,,,,,,*1E
$GPRMC,225616.306,V,,,,,0.00,0.00,140416,,,N*4A
$GPVTG,0.00,T,,M,0.00,N,0.00,K,N*32
$GPGGA,225617.306,,,,,0,00,,,M,,M,,*78
$GPGSA,A,1,,,,,,,,,,,,,,,*1E
$GPRMC,225617.306,V,,,,,0.00,0.00,140416,,,N*4B
$GPVTG,0.00,T,,M,0.00,N,0.00,K,N*32
$GPGGA,225618.306,,,,,0,00,,,M,,M,,*77
$GPGSA,A,1,,,,,,,,,,,,,,,*1E
$GPGSV,2,1,05,08,,,42,11,,,40,30,,,37,28,,,41*7D
$GPGSV,2,2,05,07,,,43*7C
$GPRMC,225618.306,V,,,,,0.00,0.00,140416,,,N*44
$GPVTG,0.00,T,,M,0.00,N,0.00,K,N*32
$GPGGA,225619.086,,,,,0,00,,,M,,M,,*7D
$GPGSA,A,1,,,,,,,,,,,,,,,*1E
$GPRMC,225619.086,V,,,,,0.00,0.00,140416,,,N*4E
$GPVTG,0.00,T,,M,0.00,N,0.00,K,N*32
$GPGGA,225619.306,,,,,0,00,,,M,,M,,*76
$GPGSA,A,1,,,,,,,,,,,,,,,*1E
$GPRMC,225619.306,V,,,,,0.00,0.00,140416,,,N*45
$GPVTG,0.00,T,,M,0.00,N,0.00,K,N*32
$GPGGA,225620.306,,,,,0,00,,,M,,M,,*7C
$GPGSA,A,1,,,,,,,,,,,,,,,*1E
$GPRMC,225620.306,V,,,,,0.00,0.00,140416,,,N*4F
$GPVTG,0.00,T,,M,0.00,N,0.00,K,N*32
$GPGGA,225621.306,,,,,0,00,,,M,,M,,*7D
$GPGSA,A,1,,,,,,,,,,,,,,,*1E
$GPRMC,225621.306,V,,,,,0.00,0.00,140416,,,N*4E
$GPVTG,0.00,T,,M,0.00,N,0.00,K,N*32
$GPGGA,225622.306,,,,,0,00,,,M,,M,,*7E
$GPGSA,A,1,,,,,,,,,,,,,,,*1E
$GPGSV,2,1,06,08,,,40,11,,,40,30,,,36,28,,,36*7D
$GPGSV,2,2,06,07,,,42,13,,,35*7A
$GPRMC,225622.306,V,,,,,0.00,0.00,140416,,,N*4D
$GPVTG,0.00,T,,M,0.00,N,0.00,K,N*32
$GPGGA,225623.306,,,,,0,00,,,M,,M,,*7F
$GPGSA,A,1,,,,,,,,,,,,,,,*1E
$GPRMC,225623.306,V,,,,,0.00,0.00,140416,,,N*4C
$GPVTG,0.00,T,,M,0.00,N,0.00,K,N*32
$GPGGA,225624.306,,,,,0,00,,,M,,M,,*78
$GPGSA,A,1,,,,,,,,,,,,,,,*1E
$GPRMC,225624.306,V,,,,,0.00,0.00,140416,,,N*4B
$GPVTG,0.00,T,,M,0.00,N,0.00,K,N*32
$GPGGA,225625.085,,,,,0,00,,,M,,M,,*71
$GPGSA,A,1,,,,,,,,,,,,,,,*1E
$GPRMC,225625.085,V,,,,,0.00,0.00,140416,,,N*42
$GPVTG,0.00,T,,M,0.00,N,0.00,K,N*32
$GPGGA,225626.085,,,,,0,00,,,M,,M,,*72
$GPGSA,A,1,,,,,,,,,,,,,,,*1E
$GPRMC,225626.085,V,,,,,0.00,0.00,140416,,,N*41
$GPVTG,0.00,T,,M,0.00,N,0.00,K,N*32
$GPGGA,225627.085,,,,,0,00,,,M,,M,,*73
$GPGSA,A,1,,,,,,,,,,,,,,,*1E
$GPGSV,2,1,06,08,,,30,11,,,35,30,,,38,28,,,39*79
$GPGSV,2,2,06,07,,,29,13,,,38*7A
$GPRMC,225627.085,V,,,,,0.00,0.00,140416,,,N*40
$GPVTG,0.00,T,,M,0.00,N,0.00,K,N*32
$GPGGA,225628.085,,,,,0,00,,,M,,M,,*7C
$GPGSA,A,1,,,,,,,,,,,,,,,*1E
$GPRMC,225628.085,V,,,,,0.00,0.00,140416,,,N*4F
$GPVTG,0.00,T,,M,0.00,N,0.00,K,N*32
$GPGGA,225629.085,,,,,0,00,,,M,,M,,*7D
$GPGSA,A,1,,,,,,,,,,,,,,,*1E
$GPRMC,225629.085,V,,,,,0.00,0.00,140416,,,N*4E
$GPVTG,0.00,T,,M,0.00,N,0.00,K,N*32
$GPGGA,225630.085,,,,,0,00,,,M,,M,,*75
$GPGSA,A,1,,,,,,,,,,,,,,,*1E
$GPRMC,225630.085,V,,,,,0.00,0.00,140416,,,N*46
$GPVTG,0.00,T,,M,0.00,N,0.00,K,N*32
$GPGGA,225631.085,,,,,0,00,,,M,,M,,*74
$GPGSA,A,1,,,,,,,,,,,,,,,*1E
$GPRMC,225631.085,V,,,,,0.00,0.00,140416,,,N*47
$GPVTG,0.00,T,,M,0.00,N,0.00,K,N*32
$GPGGA,225631.299,,,,,0,00,,,M,,M,,*7B
$GPGSA,A,1,,,,,,,,,,,,,,,*1E
$GPGSV,2,1,06,08,,,36,11,,,36,30,,,40,28,,,39*73
$GPGSV,2,2,06,07,,,28,13,,,36*75
$GPRMC,225631.299,V,,,,,0.00,0.00,140416,,,N*48
$GPVTG,0.00,T,,M,0.00,N,0.00,K,N*32
$GPGGA,225632.299,,,,,0,00,,,M,,M,,*78
$GPGSA,A,1,,,,,,,,,,,,,,,*1E
$GPRMC,225632.299,V,,,,,0.00,0.00,140416,,,N*4B
$GPVTG,0.00,T,,M,0.00,N,0.00,K,N*32
$GPGGA,225633.299,,,,,0,00,,,M,,M,,*79
$GPGSA,A,1,,,,,,,,,,,,,,,*1E
$GPRMC,225633.299,V,,,,,0.00,0.00,140416,,,N*4A
$GPVTG,0.00,T,,M,0.00,N,0.00,K,N*32
$GPGGA,225634.299,,,,,0,00,,,M,,M,,*7E
$GPGSA,A,1,,,,,,,,,,,,,,,*1E
$GPRMC,225634.299,V,,,,,0.00,0.00,140416,,,N*4D
$GPVTG,0.00,T,,M,0.00,N,0.00,K,N*32
$GPGGA,225635.299,,,,,0,00,,,M,,M,,*7F
$GPGSA,A,1,,,,,,,,,,,,,,,*1E
$GPRMC,225635.299,V,,,,,0.00,0.00,140416,,,N*4C
$GPVTG,0.00,T,,M,0.00,N,0.00,K,N*32
$GPGGA,225636.299,,,,,0,00,,,M,,M,,*7C
$GPGSA,A,1,,,,,,,,,,,,,,,*1E
$GPGSV,2,1,06,08,,,37,11,,,37,30,,,40,28,,,39*73
$GPGSV,2,2,06,07,,,28,13,,,35*76
$GPRMC,225636.299,V,,,,,0.00,0.00,140416,,,N*4F
$GPVTG,0.00,T,,M,0.00,N,0.00,K,N*32
$GPGGA,225637.099,,,,,0,00,,,M,,M,,*7F
$GPGSA,A,1,,,,,,,,,,,,,,,*1E
$GPRMC,225637.099,V,,,,,0.00,0.00,140416,,,N*4C
$GPVTG,0.00,T,,M,0.00,N,0.00,K,N*32
$GPGGA,225638.099,,,,,0,00,,,M,,M,,*70
$GPGSA,A,1,,,,,,,,,,,,,,,*1E
$GPRMC,225638.099,V,,,,,0.00,0.00,140416,,,N*43
$GPVTG,0.00,T,,M,0.00,N,0.00,K,N*32
$GPGGA,225639.099,,,,,0,00,,,M,,M,,*71
$GPGSA,A,1,,,,,,,,,,,,,,,*1E
$GPRMC,225639.099,V,,,,,0.00,0.00,140416,,,N*42
$GPVTG,0.00,T,,M,0.00,N,0.00,K,N*32
$GPGGA,225640.099,,,,,0,00,,,M,,M,,*7F
$GPGSA,A,1,,,,,,,,,,,,,,,*1E
$GPRMC,225640.099,V,,,,,0.00,0.00,140416,,,N*4C
$GPVTG,0.00,T,,M,0.00,N,0.00,K,N*32
$GPGGA,225641.099,,,,,0,00,,,M,,M,,*7E
$GPGSA,A,1,,,,,,,,,,,,,,,*1E
$GPGSV,2,1,06,08,,,36,11,,,37,30,,,42,28,,,37*7E
$GPGSV,2,2,06,07,,,26,13,,,33*7E
$GPRMC,225641.099,V,,,,,0.00,0.00,140416,,,N*4D
$GPVTG,0.00,T,,M,0.00,N,0.00,K,N*32
$GPGGA,225642.085,,,,,0,03,,,M,,M,,*73
$GPGSA,A,1,,,,,,,,,,,,,,,*1E
$GPRMC,225642.085,V,,,,,0.00,0.00,140416,,,N*43
$GPVTG,0.00,T,,M,0.00,N,0.00,K,N*32
$GPGGA,225643.084,,,,,0,03,,,M,,M,,*73
$GPGSA,A,1,,,,,,,,,,,,,,,*1E
$GPRMC,225643.084,V,,,,,0.43,177.92,140416,,,N*4E
$GPVTG,177.92,T,,M,0.43,N,0.80,K,N*37
$GPGGA,225643.304,,,,,0,03,,,M,,M,,*78
$GPGSA,A,1,,,,,,,,,,,,,,,*1E
$GPRMC,225643.304,V,,,,,0.28,96.31,140416,,,N*7F
$GPVTG,96.31,T,,M,0.28,N,0.52,K,N*02
$GPGGA,225645.000,,,,,0,03,,,M,,M,,*79
$GPGSA,A,1,,,,,,,,,,,,,,,*1E
$GPRMC,225645.000,V,,,,,0.24,176.76,140416,,,N*4E
$GPVTG,176.76,T,,M,0.24,N,0.45,K,N*34
$GPGGA,225646.000,4353.2773,N,07917.9680,W,1,03,2.23,185.3,M,-35.3,M,,*57
$GPGSA,A,2,01,08,30,,,,,,,,,,2.45,2.23,1.00*08
$GPGSV,3,1,09,30,69,243,43,11,65,107,37,01,49,134,30,08,36,055,38*72
$GPGSV,3,2,09,13,19,301,35,10,02,035,,15,01,332,,28,,,40*43
$GPGSV,3,3,09,07,,,25*70
$GPRMC,225646.000,A,4353.2773,N,07917.9680,W,0.16,318.85,140416,,,A*74
$GPVTG,318.85,T,,M,0.16,N,0.29,K,A*36
$GPGGA,225647.000,4353.2772,N,07917.9685,W,1,03,2.23,185.3,M,-35.3,M,,*52
$GPGSA,A,2,01,08,30,,,,,,,,,,2.44,2.23,1.00*09
$GPRMC,225647.000,A,4353.2772,N,07917.9685,W,0.35,316.25,140416,,,A*74
$GPVTG,316.25,T,,M,0.35,N,0.65,K,A*3B
$GPGGA,225648.000,4353.2772,N,07917.9685,W,1,03,2.23,185.3,M,-35.3,M,,*5D
$GPGSA,A,2,01,08,30,,,,,,,,,,2.45,2.23,1.00*08
$GPRMC,225648.000,A,4353.2772,N,07917.9685,W,0.14,278.17,140416,,,A*70
$GPVTG,278.17,T,,M,0.14,N,0.26,K,A*37
$GPGGA,225649.000,4353.2773,N,07917.9689,W,1,03,2.23,185.3,M,-35.3,M,,*51
$GPGSA,A,2,01,08,30,,,,,,,,,,2.45,2.23,1.00*08
$GPRMC,225649.000,A,4353.2773,N,07917.9689,W,0.18,226.69,140416,,,A*72
$GPVTG,226.69,T,,M,0.18,N,0.33,K,A*3D
$GPGGA,225649.208,4353.2777,N,07917.9685,W,1,03,2.23,185.3,M,-35.3,M,,*53
$GPGSA,A,2,01,08,30,,,,,,,,,,2.44,2.23,1.00*09
$GPRMC,225649.208,A,4353.2777,N,07917.9685,W,1.57,70.33,140416,,,A*44
$GPVTG,70.33,T,,M,1.57,N,2.92,K,A*00
$GPGGA,225651.000,4353.2787,N,07917.9681,W,1,03,2.23,185.3,M,-35.3,M,,*5B
$GPGSA,A,2,01,08,30,,,,,,,,,,2.44,2.23,1.00*09
$GPGSV,3,1,09,30,69,243,43,11,65,107,38,01,49,134,33,08,36,055,38*7E
$GPGSV,3,2,09,13,19,301,35,10,02,035,,15,01,332,,28,,,39*4D
$GPGSV,3,3,09,07,,,24*71
$GPRMC,225651.000,A,4353.2787,N,07917.9681,W,2.22,43.45,140416,,,A*4C
$GPVTG,43.45,T,,M,2.22,N,4.11,K,A*0D
$GPGGA,225652.000,4353.2791,N,07917.9687,W,1,03,2.23,185.3,M,-35.3,M,,*59
$GPGSA,A,2,01,08,30,,,,,,,,,,2.45,2.23,1.00*08
$GPRMC,225652.000,A,4353.2791,N,07917.9687,W,0.87,315.20,140416,,,A*70
$GPVTG,315.20,T,,M,0.87,N,1.62,K,A*32
$GPGGA,225653.000,4353.2793,N,07917.9691,W,1,03,2.23,185.3,M,-35.3,M,,*5D
$GPGSA,A,2,01,08,30,,,,,,,,,,2.45,2.23,1.00*08
$GPRMC,225653.000,A,4353.2793,N,07917.9691,W,0.55,334.40,140416,,,A*7E
$GPVTG,334.40,T,,M,0.55,N,1.03,K,A*3F
$GPGGA,225654.000,4353.2795,N,07917.9695,W,1,03,2.23,185.3,M,-35.3,M,,*58
$GPGSA,A,2,01,08,30,,,,,,,,,,2.45,2.23,1.00*08
$GPRMC,225654.000,A,4353.2795,N,07917.9695,W,0.36,325.83,140416,,,A*71
$GPVTG,325.83,T,,M,0.36,N,0.67,K,A*36
$GPGGA,225655.000,4353.2799,N,07917.9700,W,1,03,2.23,185.3,M,-35.3,M,,*58
$GPGSA,A,2,01,08,30,,,,,,,,,,2.45,2.23,1.00*08
$GPRMC,225655.000,A,4353.2799,N,07917.9700,W,0.30,330.23,140416,,,A*79
$GPVTG,330.23,T,,M,0.30,N,0.55,K,A*3F
$GPGGA,225655.215,4353.2770,N,07917.9670,W,1,03,2.23,185.4,M,-35.3,M,,*58
$GPGSA,A,2,01,08,30,,,,,,,,,,2.45,2.23,1.00*08
$GPGSV,3,1,09,30,69,243,42,11,65,106,38,01,49,134,33,08,36,055,36*70
$GPGSV,3,2,09,13,19,301,34,10,02,035,,15,01,332,,28,,,38*4D
$GPGSV,3,3,09,07,,,27*72
$GPRMC,225655.215,A,4353.2770,N,07917.9670,W,5.52,144.82,140416,,,A*75
$GPVTG,144.82,T,,M,5.52,N,10.22,K,A*05
$GPGGA,225657.000,4353.2767,N,07917.9656,W,1,03,2.23,185.3,M,-35.3,M,,*59
$GPGSA,A,2,01,08,30,,,,,,,,,,2.45,2.23,1.00*08
$GPRMC,225657.000,A,4353.2767,N,07917.9656,W,3.16,111.70,140416,,,A*78
$GPVTG,111.70,T,,M,3.16,N,5.86,K,A*34
$GPGGA,225658.000,4353.2771,N,07917.9657,W,1,03,2.23,185.4,M,-35.3,M,,*57
$GPGSA,A,2,01,08,30,,,,,,,,,,2.45,2.23,1.00*08
$GPRMC,225658.000,A,4353.2771,N,07917.9657,W,3.11,162.61,140416,,,A*72
$GPVTG,162.61,T,,M,3.11,N,5.77,K,A*39
$GPGGA,225659.000,4353.2778,N,07917.9664,W,1,03,2.24,185.4,M,-35.3,M,,*58
$GPGSA,A,2,01,08,30,,,,,,,,,,2.45,2.24,1.00*0F
$GPRMC,225659.000,A,4353.2778,N,07917.9664,W,0.06,115.27,140416,,,A*7D
$GPVTG,115.27,T,,M,0.06,N,0.11,K,A*3B
$GPGGA,225700.000,4353.2787,N,07917.9671,W,1,03,2.23,185.3,M,-35.3,M,,*51
$GPGSA,A,2,01,08,30,,,,,,,,,,2.45,2.23,1.00*08
$GPRMC,225700.000,A,4353.2787,N,07917.9671,W,0.02,88.36,140416,,,A*45
$GPVTG,88.36,T,,M,0.02,N,0.03,K,A*09
$GPGGA,225701.000,4353.2796,N,07917.9678,W,1,03,2.24,185.3,M,-35.3,M,,*5E
$GPGSA,A,2,01,08,30,,,,,,,,,,2.45,2.24,1.00*0F
$GPGSV,3,1,09,30,69,243,42,11,65,106,40,01,49,134,35,08,36,055,36*79
$GPGSV,3,2,09,13,19,301,33,10,02,035,18,15,01,332,17,28,,,38*45
$GPGSV,3,3,09,07,,,28*7D
$GPRMC,225701.000,A,4353.2796,N,07917.9678,W,0.02,148.57,140416,,,A*77
$GPVTG,148.57,T,,M,0.02,N,0.04,K,A*34
$GPGGA,225701.211,4353.2888,N,07917.9722,W,1,07,1.26,201.9,M,-35.3,M,,*52
$GPGSA,A,3,01,08,11,30,28,07,13,,,,,,1.57,1.26,0.94*0C
$GPRMC,225701.211,A,4353.2888,N,07917.9722,W,0.13,349.22,140416,,,A*7A
$GPVTG,349.22,T,,M,0.13,N,0.24,K,A*37
$GPGGA,225703.000,4353.2892,N,07917.9731,W,1,07,1.46,200.2,M,-35.3,M,,*57
$GPGSA,A,3,01,08,11,30,28,07,13,,,,,,3.02,1.46,2.64*05
$GPRMC,225703.000,A,4353.2892,N,07917.9731,W,0.06,203.18,140416,,,A*71
$GPVTG,203.18,T,,M,0.06,N,0.11,K,A*33
$GPGGA,225704.000,4353.2894,N,07917.9733,W,1,07,1.26,199.6,M,-35.3,M,,*55
$GPGSA,A,3,01,08,11,30,28,07,13,,,,,,1.57,1.26,0.93*0B
$GPRMC,225704.000,A,4353.2894,N,07917.9733,W,0.06,179.24,140416,,,A*73
$GPVTG,179.24,T,,M,0.06,N,0.12,K,A*31
$GPGGA,225705.000,4353.2897,N,07917.9736,W,1,07,1.26,199.4,M,-35.3,M,,*50
$GPGSA,A,3,01,08,11,30,28,07,13,,,,,,1.57,1.26,0.93*0B
$GPRMC,225705.000,A,4353.2897,N,07917.9736,W,0.02,225.64,140416,,,A*7E
$GPVTG,225.64,T,,M,0.02,N,0.03,K,A*3B
$GPGGA,225706.000,4353.2899,N,07917.9739,W,1,07,1.26,198.9,M,-35.3,M,,*5E
$GPGSA,A,3,01,08,11,30,28,07,13,,,,,,1.57,1.26,0.93*0B
$GPGSV,3,1,10,30,69,243,42,11,65,106,40,07,53,181,28,01,49,134,35*7A
$GPGSV,3,2,10,28,47,302,37,08,36,055,35,51,32,217,35,13,19,301,33*71
$GPGSV,3,3,10,10,02,035,18,15,01,332,15*77
$GPRMC,225706.000,A,4353.2899,N,07917.9739,W,0.00,345.93,140416,,,A*71
$GPVTG,345.93,T,,M,0.00,N,0.01,K,A*34
$GPGGA,225707.000,4353.2899,N,07917.9740,W,1,07,1.46,198.2,M,-35.3,M,,*5C
$GPGSA,A,3,01,08,11,30,28,07,13,,,,,,3.01,1.46,2.64*06
$GPRMC,225707.000,A,4353.2899,N,07917.9740,W,0.01,178.58,140416,,,A*74
$GPVTG,178.58,T,,M,0.01,N,0.03,K,A*3C
$GPGGA,225708.000,4353.2900,N,07917.9740,W,1,07,1.26,198.0,M,-35.3,M,,*56
$GPGSA,A,3,01,08,11,30,28,07,13,,,,,,1.57,1.26,0.93*0B
$GPRMC,225708.000,A,4353.2900,N,07917.9740,W,0.02,178.92,140416,,,A*7F
$GPVTG,178.92,T,,M,0.02,N,0.03,K,A*39
$GPGGA,225709.000,4353.2900,N,07917.9741,W,1,07,1.26,197.6,M,-35.3,M,,*5F
$GPGSA,A,3,01,08,11,30,28,07,13,,,,,,1.57,1.26,0.93*0B
$GPRMC,225709.000,A,4353.2900,N,07917.9741,W,0.03,352.54,140416,,,A*7E
$GPVTG,352.54,T,,M,0.03,N,0.05,K,A*3E
$GPGGA,225710.000,4353.2902,N,07917.9742,W,1,07,1.46,197.5,M,-35.3,M,,*53
$GPGSA,A,3,01,08,11,30,28,07,13,,,,,,3.01,1.46,2.63*01
$GPRMC,225710.000,A,4353.2902,N,07917.9742,W,0.02,152.95,140416,,,A*79
$GPVTG,152.95,T,,M,0.02,N,0.04,K,A*31
$GPGGA,225711.000,4353.2902,N,07917.9741,W,1,07,1.26,197.2,M,-35.3,M,,*50
$GPGSA,A,3,01,08,11,30,28,07,13,,,,,,1.57,1.26,0.93*0B
$GPGSV,3,1,10,30,69,243,42,11,65,106,40,07,53,181,31,01,49,134,35*72
$GPGSV,3,2,10,28,47,302,37,08,36,055,35,51,32,217,33,13,19,301,32*76
$GPGSV,3,3,10,10,02,035,21,15,01,332,15*7D
$GPRMC,225711.000,A,4353.2902,N,07917.9741,W,0.02,235.42,140416,,,A*73
$GPVTG,235.42,T,,M,0.02,N,0.03,K,A*3E
$GPGGA,225712.000,4353.2903,N,07917.9740,W,1,07,1.26,196.9,M,-35.3,M,,*59
$GPGSA,A,3,01,08,11,30,28,07,13,,,,,,1.57,1.26,0.93*0B
$GPRMC,225712.000,A,4353.2903,N,07917.9740,W,0.03,11.86,140416,,,A*4D
$GPVTG,11.86,T,,M,0.03,N,0.06,K,A*06
$GPGGA,225713.000,4353.2904,N,07917.9740,W,1,07,1.46,196.6,M,-35.3,M,,*56
$GPGSA,A,3,01,08,11,30,28,07,13,,,,,,3.01,1.46,2.63*01
$GPRMC,225713.000,A,4353.2904,N,07917.9740,W,0.19,354.24,140416,,,A*7A
$GPVTG,354.24,T,,M,0.19,N,0.35,K,A*37
$GPGGA,225714.000,4353.2905,N,07917.9740,W,1,07,1.46,196.4,M,-35.3,M,,*52
$GPGSA,A,3,01,08,11,30,28,07,13,,,,,,3.01,1.46,2.63*01
$GPRMC,225714.000,A,4353.2905,N,07917.9740,W,0.22,354.44,140416,,,A*72
$GPVTG,354.44,T,,M,0.22,N,0.41,K,A*3A
$GPGGA,225715.000,4353.2906,N,07917.9739,W,1,07,1.46,196.3,M,-35.3,M,,*59
$GPGSA,A,3,01,08,11,30,28,07,13,,,,,,3.01,1.46,2.63*01
$GPRMC,225715.000,A,4353.2906,N,07917.9739,W,0.19,2.55,140416,,,A*76
$GPVTG,2.55,T,,M,0.19,N,0.36,K,A*32
$GPGGA,225716.000,4353.2907,N,07917.9739,W,1,07,1.46,196.2,M,-35.3,M,,*5A
$GPGSA,A,3,01,08,11,30,28,07,13,,,,,,3.01,1.46,2.63*01
$GPGSV,3,1,10,30,69,242,42,11,65,106,39,07,53,181,31,01,49,134,35*7D
$GPGSV,3,2,10,28,47,302,37,08,36,055,33,51,32,217,33,13,19,301,32*70
$GPGSV,3,3,10,10,02,035,23,15,01,332,15*7F
$GPRMC,225716.000,A,4353.2907,N,07917.9739,W,0.02,286.47,140416,,,A*73
$GPVTG,286.47,T,,M,0.02,N,0.03,K,A*33
$GPGGA,225717.000,4353.2907,N,07917.9739,W,1,07,1.26,196.1,M,-35.3,M,,*5E
$GPGSA,A,3,01,08,11,30,28,07,13,,,,,,1.57,1.26,0.93*0B
$GPRMC,225717.000,A,4353.2907,N,07917.9739,W,0.21,55.63,140416,,,A*49
$GPVTG,55.63,T,,M,0.21,N,0.39,K,A*01
$GPGGA,225718.000,4353.2907,N,07917.9738,W,1,07,1.26,196.1,M,-35.3,M,,*50
$GPGSA,A,3,01,08,11,30,28,07,13,,,,,,1.57,1.26,0.93*0B
$GPRMC,225718.000,A,4353.2907,N,07917.9738,W,0.14,9.99,140416,,,A*7D
$GPVTG,9.99,T,,M,0.14,N,0.27,K,A*34
$GPGGA,225719.000,4353.2907,N,07917.9738,W,1,07,1.46,196.1,M,-35.3,M,,*57
$GPGSA,A,3,01,08,11,30,28,07,13,,,,,,3.01,1.46,2.63*01
$GPRMC,225719.000,A,4353.2907,N,07917.9738,W,0.84,303.05,140416,,,A*79
$GPVTG,303.05,T,,M,0.84,N,1.55,K,A*35
$GPGGA,225720.000,4353.2912,N,07917.9742,W,1,07,1.26,195.8,M,-35.3,M,,*58
$GPGSA,A,3,01,08,11,30,28,07,13,,,,,,1.57,1.26,0.93*0B
$GPRMC,225720.000,A,4353.2912,N,07917.9742,W,1.68,316.88,140416,,,A*78
$GPVTG,316.88,T,,M,1.68,N,3.11,K,A*35
$GPGGA,225721.000,4353.2916,N,07917.9746,W,1,07,1.26,195.6,M,-35.3,M,,*57
$GPGSA,A,3,01,08,11,30,28,07,13,,,,,,1.57,1.26,0.93*0B
$GPGSV,3,1,10,30,69,242,43,11,65,106,38,07,53,181,33,01,50,134,25*76
$GPGSV,3,2,10,28,47,302,42,08,36,055,38,51,32,217,37,13,19,301,41*79
$GPGSV,3,3,10,10,02,035,22,15,01,332,15*7E
$GPRMC,225721.000,A,4353.2916,N,07917.9746,W,2.08,320.75,140416,,,A*7B
$GPVTG,320.75,T,,M,2.08,N,3.85,K,A*3A
$GPGGA,225722.000,4353.2919,N,07917.9751,W,1,07,1.26,195.0,M,-35.3,M,,*5B
$GPGSA,A,3,01,08,11,30,28,07,13,,,,,,1.57,1.26,0.93*0B
$GPRMC,225722.000,A,4353.2919,N,07917.9751,W,1.92,308.15,140416,,,A*7D
$GPVTG,308.15,T,,M,1.92,N,3.56,K,A*38
$GPGGA,225723.000,4353.2923,N,07917.9757,W,1,07,1.26,195.0,M,-35.3,M,,*55
$GPGSA,A,3,01,08,11,30,28,07,13,,,,,,1.57,1.26,0.93*0B
$GPRMC,225723.000,A,4353.2923,N,07917.9757,W,1.83,308.35,140416,,,A*71
$GPVTG,308.35,T,,M,1.83,N,3.38,K,A*32
$GPGGA,225724.000,4353.2925,N,07917.9761,W,1,07,1.26,195.0,M,-35.3,M,,*51
$GPGSA,A,3,01,08,11,30,28,07,13,,,,,,1.57,1.26,0.93*0B
$GPRMC,225724.000,A,4353.2925,N,07917.9761,W,1.12,301.72,140416,,,A*77
$GPVTG,301.72,T,,M,1.12,N,2.08,K,A*32
$GPGGA,225725.000,4353.2926,N,07917.9761,W,1,07,1.26,195.1,M,-35.3,M,,*52
$GPGSA,A,3,01,08,11,30,28,07,13,,,,,,1.57,1.26,0.93*0B
$GPRMC,225725.000,A,4353.2926,N,07917.9761,W,0.28,314.29,140416,,,A*77
$GPVTG,314.29,T,,M,0.28,N,0.52,K,A*3D
$GPGGA,225726.000,4353.2926,N,07917.9760,W,1,07,1.26,194.9,M,-35.3,M,,*59
$GPGSA,A,3,01,08,11,30,28,07,13,,,,,,1.57,1.26,0.93*0B
$GPGSV,3,1,10,30,69,242,42,11,65,106,41,07,53,181,31,01,50,134,40*78
$GPGSV,3,2,10,28,47,302,42,08,36,055,37,51,32,217,28,13,19,301,41*78
$GPGSV,3,3,10,10,02,035,18,15,01,332,15*77
$GPRMC,225726.000,A,4353.2926,N,07917.9760,W,0.10,289.72,140416,,,A*75
$GPVTG,289.72,T,,M,0.10,N,0.19,K,A*32
$GPGGA,225727.000,4353.2926,N,07917.9758,W,1,07,1.26,194.8,M,-35.3,M,,*52
$GPGSA,A,3,01,08,11,30,28,07,13,,,,,,1.57,1.26,0.93*0B
$GPRMC,225727.000,A,4353.2926,N,07917.9758,W,0.07,116.19,140416,,,A*71
$GPVTG,116.19,T,,M,0.07,N,0.13,K,A*36
$GPGGA,225728.000,4353.2925,N,07917.9757,W,1,07,1.26,194.9,M,-35.3,M,,*50
$GPGSA,A,3,01,08,11,30,28,07,13,,,,,,1.57,1.26,0.93*0B
$GPRMC,225728.000,A,4353.2925,N,07917.9757,W,0.16,90.46,140416,,,A*47
$GPVTG,90.46,T,,M,0.16,N,0.29,K,A*0A
$GPGGA,225729.000,4353.2925,N,07917.9756,W,1,07,1.26,194.9,M,-35.3,M,,*50
$GPGSA,A,3,01,08,11,30,28,07,13,,,,,,1.57,1.26,0.93*0B
$GPRMC,225729.000,A,4353.2925,N,07917.9756,W,0.07,277.80,140416,,,A*76
$GPVTG,277.80,T,,M,0.07,N,0.13,K,A*32
$GPGGA,225730.000,4353.2925,N,07917.9756,W,1,07,1.26,195.0,M,-35.3,M,,*50
$GPGSA,A,3,01,08,11,30,28,07,13,,,,,,1.57,1.26,0.93*0B
$GPRMC,225730.000,A,4353.2925,N,07917.9756,W,0.02,55.75,140416,,,A*43
$GPVTG,55.75,T,,M,0.02,N,0.03,K,A*0E
$GPGGA,225731.000,4353.2925,N,07917.9756,W,1,07,1.26,194.9,M,-35.3,M,,*59
$GPGSA,A,3,01,08,11,30,28,07,13,,,,,,1.57,1.26,0.93*0B
$GPGSV,3,1,10,30,69,242,37,11,65,106,41,07,53,181,32,01,50,134,43*7A
$GPGSV,3,2,10,28,47,302,42,08,35,055,38,51,32,217,24,13,19,301,40*79
$GPGSV,3,3,10,10,02,034,16,15,01,332,16*7B
$GPRMC,225731.000,A,4353.2925,N,07917.9756,W,0.04,23.79,140416,,,A*49
$GPVTG,23.79,T,,M,0.04,N,0.07,K,A*01
$GPGGA,225732.000,4353.2925,N,07917.9756,W,1,07,1.26,195.0,M,-35.3,M,,*52
$GPGSA,A,3,01,08,11,30,28,07,13,,,,,,1.57,1.26,0.93*0B
$GPRMC,225732.000,A,4353.2925,N,07917.9756,W,0.11,342.30,140416,,,A*77
$GPVTG,342.30,T,,M,0.11,N,0.20,K,A*39
$GPGGA,225733.000,4353.2926,N,07917.9756,W,1,07,1.26,195.0,M,-35.3,M,,*50
$GPGSA,A,3,01,08,11,30,28,07,13,,,,,,1.57,1.26,0.93*0B
$GPRMC,225733.000,A,4353.2926,N,07917.9756,W,0.17,19.86,140416,,,A*43
$GPVTG,19.86,T,,M,0.17,N,0.32,K,A*0C
$GPGGA,225734.000,4353.2926,N,07917.9756,W,1,07,1.26,195.0,M,-35.3,M,,*57
$GPGSA,A,3,01,08,11,30,28,07,13,,,,,,1.57,1.26,0.93*0B
$GPRMC,225734.000,A,4353.2926,N,07917.9756,W,0.07,164.25,140416,,,A*77
$GPVTG,164.25,T,,M,0.07,N,0.13,K,A*3C
$GPGGA,225735.000,4353.2926,N,07917.9756,W,1,07,1.26,195.0,M,-35.3,M,,*56
$GPGSA,A,3,01,08,11,30,28,07,13,,,,,,1.57,1.26,0.93*0B
$GPRMC,225735.000,A,4353.2926,N,07917.9756,W,0.13,244.97,140416,,,A*7B
$GPVTG,244.97,T,,M,0.13,N,0.23,K,A*32
$GPGGA,225736.000,4353.2926,N,07917.9756,W,1,07,1.26,195.0,M,-35.3,M,,*55
$GPGSA,A,3,01,08,11,30,28,07,13,,,,,,1.57,1.26,0.93*0B
$GPGSV,3,1,10,30,69,242,34,11,65,106,41,07,53,181,29,01,50,134,42*72
$GPGSV,3,2,10,28,47,302,43,08,35,055,38,51,32,217,23,13,19,301,40*7F
$GPGSV,3,3,10,10,02,034,13,15,02,331,17*7F
$GPRMC,225736.000,A,4353.2926,N,07917.9756,W,0.02,347.57,140416,,,A*76
$GPVTG,347.57,T,,M,0.02,N,0.04,K,A*39
$GPGGA,225737.000,4353.2926,N,07917.9756,W,1,07,1.46,195.0,M,-35.3,M,,*52
$GPGSA,A,3,01,08,11,30,28,07,13,,,,,,3.00,1.46,2.63*00
$GPRMC,225737.000,A,4353.2926,N,07917.9756,W,0.02,235.94,140416,,,A*7C
$GPVTG,235.94,T,,M,0.02,N,0.04,K,A*32
$GPGGA,225738.000,4353.2926,N,07917.9756,W,1,07,1.26,195.0,M,-35.3,M,,*5B
$GPGSA,A,3,01,08,11,30,28,07,13,,,,,,1.57,1.26,0.93*0B
$GPRMC,225738.000,A,4353.2926,N,07917.9756,W,0.03,258.81,140416,,,A*7D
$GPVTG,258.81,T,,M,0.03,N,0.06,K,A*3E
$GPGGA,225739.000,4353.2926,N,07917.9757,W,1,07,1.26,195.0,M,-35.3,M,,*5B
$GPGSA,A,3,01,08,11,30,28,07,13,,,,,,1.57,1.26,0.93*0B
$GPRMC,225739.000,A,4353.2926,N,07917.9757,W,0.07,180.81,140416,,,A*7F
$GPVTG,180.81,T,,M,0.07,N,0.13,K,A*38
$GPGGA,225740.000,4353.2926,N,07917.9757,W,1,07,1.26,195.0,M,-35.3,M,,*55
$GPGSA,A,3,01,08,11,30,28,07,13,,,,,,1.57,1.26,0.93*0B
$GPRMC,225740.000,A,4353.2926,N,07917.9757,W,0.07,163.69,140416,,,A*7A
$GPVTG,163.69,T,,M,0.07,N,0.12,K,A*32
$GPGGA,225741.000,4353.2925,N,07917.9756,W,1,07,1.26,195.0,M,-35.3,M,,*56
$GPGSA,A,3,01,08,11,30,28,07,13,,,,,,1.57,1.26,0.93*0B
$GPGSV,3,1,10,30,69,242,41,11,65,106,40,07,53,181,29,01,50,134,41*72
$GPGSV,3,2,10,28,47,302,42,08,35,055,37,51,32,217,24,13,19,301,34*75
$GPGSV,3,3,10,10,02,034,13,15,02,331,18*70
$GPRMC,225741.000,A,4353.2925,N,07917.9756,W,0.47,255.30,140416,,,A*77
$GPVTG,255.30,T,,M,0.47,N,0.87,K,A*30
$GPGGA,225742.000,4353.2925,N,07917.9758,W,1,07,1.26,195.0,M,-35.3,M,,*5B
$GPGSA,A,3,01,08,11,30,28,07,13,,,,,,1.57,1.26,0.93*0B
$GPRMC,225742.000,A,4353.2925,N,07917.9758,W,0.34,238.03,140416,,,A*75
$GPVTG,238.03,T,,M,0.34,N,0.62,K,A*34
$GPGGA,225743.000,4353.2925,N,07917.9759,W,1,07,1.26,195.0,M,-35.3,M,,*5B
$GPGSA,A,3,01,08,11,30,28,07,13,,,,,,1.57,1.26,0.93*0B
$GPRMC,225743.000,A,4353.2925,N,07917.9759,W,0.10,118.12,140416,,,A*72
$GPVTG,118.12,T,,M,0.10,N,0.19,K,A*3F
$GPGGA,225744.000,4353.2924,N,07917.9759,W,1,07,1.26,195.1,M,-35.3,M,,*5C
$GPGSA,A,3,01,08,11,30,28,07,13,,,,,,1.57,1.26,0.93*0B
$GPRMC,225744.000,A,4353.2924,N,07917.9759,W,0.06,238.41,140416,,,A*74
$GPVTG,238.41,T,,M,0.06,N,0.11,K,A*37
$GPGGA,225745.000,4353.2924,N,07917.9759,W,1,07,1.26,195.1,M,-35.3,M,,*5D
$GPGSA,A,3,01,08,11,30,28,07,13,,,,,,1.57,1.26,0.93*0B
$GPRMC,225745.000,A,4353.2924,N,07917.9759,W,0.12,264.74,140416,,,A*7F
$GPVTG,264.74,T,,M,0.12,N,0.22,K,A*3D
$GPGGA,225746.000,4353.2924,N,07917.9759,W,1,07,1.26,195.1,M,-35.3,M,,*5E
$GPGSA,A,3,01,08,11,30,28,07,13,,,,,,1.57,1.26,0.93*0B
$GPGSV,3,1,10,30,69,242,35,11,65,106,43,07,53,181,33,01,50,134,43*7B
$GPGSV,3,2,10,28,47,302,42,08,35,055,41,51,32,217,24,13,19,301,36*76
$GPGSV,3,3,10,10,02,034,13,15,02,331,16*7E
$GPRMC,225746.000,A,4353.2924,N,07917.9759,W,0.05,275.99,140416,,,A*79
$GPVTG,275.99,T,,M,0.05,N,0.09,K,A*31
$GPGGA,225747.000,4353.2924,N,07917.9760,W,1,07,1.26,195.1,M,-35.3,M,,*55
$GPGSA,A,3,01,08,11,30,28,07,13,,,,,,1.57,1.26,0.93*0B
$GPRMC,225747.000,A,4353.2924,N,07917.9760,W,0.04,130.01,140416,,,A*70
$GPVTG,130.01,T,,M,0.04,N,0.08,K,A*32
$GPGGA,225748.000,4353.2924,N,07917.9759,W,1,07,1.26,195.1,M,-35.3,M,,*50
$GPGSA,A,3,01,08,11,30,28,07,13,,,,,,1.57,1.26,0.93*0B
$GPRMC,225748.000,A,4353.2924,N,07917.9759,W,0.15,97.00,140416,,,A*48
$GPVTG,97.00,T,,M,0.15,N,0.27,K,A*02
$GPGGA,225749.000,4353.2924,N,07917.9759,W,1,07,1.26,195.1,M,-35.3,M,,*51
$GPGSA,A,3,01,08,11,30,28,07,13,,,,,,1.57,1.26,0.93*0B
$GPRMC,225749.000,A,4353.2924,N,07917.9759,W,0.21,279.65,140416,,,A*7F
$GPVTG,279.65,T,,M,0.21,N,0.40,K,A*35
$GPGGA,225750.000,4353.2924,N,07917.9760,W,1,07,1.26,195.1,M,-35.3,M,,*53
$GPGSA,A,3,01,08,11,30,28,07,13,,,,,,1.57,1.26,0.93*0B
$GPRMC,225750.000,A,4353.2924,N,07917.9760,W,0.09,74.05,140416,,,A*4E
$GPVTG,74.05,T,,M,0.09,N,0.17,K,A*04
$GPGGA,225751.000,4353.2924,N,07917.9759,W,1,07,1.26,195.0,M,-35.3,M,,*59
$GPGSA,A,3,01,08,11,30,28,07,13,,,,,,1.57,1.26,0.93*0B
$GPGSV,3,1,10,30,69,241,36,11,65,106,43,07,53,181,28,01,50,134,42*70
$GPGSV,3,2,10,28,48,302,42,08,35,055,41,51,32,217,23,13,19,301,38*70
$GPGSV,3,3,10,10,02,034,14,15,02,331,15*7A
$GPRMC,225751.000,A,4353.2924,N,07917.9759,W,0.02,255.42,140416,,,A*7C
$GPVTG,255.42,T,,M,0.02,N,0.03,K,A*38
$GPGGA,225752.000,4353.2924,N,07917.9759,W,1,07,1.26,195.1,M,-35.3,M,,*5B
$GPGSA,A,3,01,08,11,30,28,07,13,,,,,,1.57,1.26,0.93*0B
$GPRMC,225752.000,A,4353.2924,N,07917.9759,W,0.01,192.92,140416,,,A*79
$GPVTG,192.92,T,,M,0.01,N,0.03,K,A*3E
$GPGGA,225753.000,4353.2924,N,07917.9759,W,1,07,1.26,195.1,M,-35.3,M,,*5A
$GPGSA,A,3,01,08,11,30,28,07,13,,,,,,1.57,1.26,0.93*0B
$GPRMC,225753.000,A,4353.2924,N,07917.9759,W,0.02,170.45,140416,,,A*7D
$GPVTG,170.45,T,,M,0.02,N,0.03,K,A*3B
$GPGGA,225754.000,4353.2924,N,07917.9759,W,1,07,1.26,195.1,M,-35.3,M,,*5D
$GPGSA,A,3,01,08,11,30,28,07,13,,,,,,1.57,1.26,0.93*0B
$GPRMC,225754.000,A,4353.2924,N,07917.9759,W,0.02,21.83,140416,,,A*45
$GPVTG,21.83,T,,M,0.02,N,0.03,K,A*04
$GPGGA,225755.000,4353.2924,N,07917.9759,W,1,07,1.26,195.1,M,-35.3,M,,*5C
$GPGSA,A,3,01,08,11,30,28,07,13,,,,,,1.57,1.26,0.93*0B
$GPRMC,225755.000,A,4353.2924,N,07917.9759,W,0.02,319.47,140416,,,A*74
$GPVTG,319.47,T,,M,0.02,N,0.04,K,A*33
$GPGGA,225756.000,4353.2924,N,07917.9759,W,1,07,1.26,195.1,M,-35.3,M,,*5F
$GPGSA,A,3,01,08,11,30,28,07,13,,,,,,1.57,1.26,0.93*0B
$GPGSV,3,1,10,30,69,241,37,11,65,106,43,07,53,181,29,01,50,133,41*74
$GPGSV,3,2,10,28,48,302,41,08,35,055,30,51,32,217,23,13,19,301,39*74
$GPGSV,3,3,10,10,02,034,17,15,02,331,16*7A
$GPRMC,225756.000,A,4353.2924,N,07917.9759,W,0.83,16.24,140416,,,A*47
$GPVTG,16.24,T,,M,0.83,N,1.54,K,A*07
$GPGGA,225757.000,4353.2928,N,07917.9761,W,1,07,1.26,195.1,M,-35.3,M,,*59
$GPGSA,A,3,01,08,11,30,28,07,13,,,,,,1.57,1.26,0.93*0B
$GPRMC,225757.000,A,4353.2928,N,07917.9761,W,2.61,324.04,140416,,,A*7F
$GPVTG,324.04,T,,M,2.61,N,4.84,K,A*31
$GPGGA,225758.000,4353.2933,N,07917.9768,W,1,07,1.26,195.0,M,-35.3,M,,*54
$GPGSA,A,3,01,08,11,30,28,07,13,,,,,,1.57,1.26,0.93*0B
$GPRMC,225758.000,A,4353.2933,N,07917.9768,W,2.68,295.49,140416,,,A*78
$GPVTG,295.49,T,,M,2.68,N,4.97,K,A*38
$GPGGA,225759.000,4353.2936,N,07917.9777,W,1,07,1.26,194.9,M,-35.3,M,,*56
$GPGSA,A,3,01,08,11,30,28,07,13,,,,,,1.57,1.26,0.93*0B
$GPRMC,225759.000,A,4353.2936,N,07917.9777,W,2.48,297.96,140416,,,A*70
$GPVTG,297.96,T,,M,2.48,N,4.60,K,A*32
$GPGGA,225800.000,4353.2939,N,07917.9784,W,1,07,1.26,194.8,M,-35.3,M,,*57
$GPGSA,A,3,01,08,11,30,28,07,13,,,,,,1.57,1.26,0.93*0B
$GPRMC,225800.000,A,4353.2939,N,07917.9784,W,2.56,301.34,140416,,,A*79
$GPVTG,301.34,T,,M,2.56,N,4.74,K,A*3E
$GPGGA,225801.000,4353.2942,N,07917.9792,W,1,07,1.26,194.8,M,-35.3,M,,*5D
$GPGSA,A,3,01,08,11,30,28,07,13,,,,,,1.57,1.26,0.93*0B
$GPGSV,3,1,10,30,69,241,42,11,65,106,31,07,53,181,34,01,50,133,27*7F
$GPGSV,3,2,10,28,48,302,38,08,35,055,37,51,32,217,41,13,19,301,40*77
$GPGSV,3,3,10,10,02,034,14,15,02,331,14*7B
$GPRMC,225801.000,A,4353.2942,N,07917.9792,W,2.61,299.30,140416,,,A*73
$GPVTG,299.30,T,,M,2.61,N,4.84,K,A*31
$GPGGA,225802.000,4353.2945,N,07917.9801,W,1,07,1.26,194.5,M,-35.3,M,,*51
$GPGSA,A,3,01,08,11,30,28,07,13,,,,,,1.57,1.26,0.93*0B
$GPRMC,225802.000,A,4353.2945,N,07917.9801,W,2.72,294.07,140416,,,A*79
$GPVTG,294.07,T,,M,2.72,N,5.04,K,A*33
$GPGGA,225803.000,4353.2948,N,07917.9810,W,1,07,1.26,194.6,M,-35.3,M,,*5E
$GPGSA,A,3,01,08,11,30,28,07,13,,,,,,1.57,1.26,0.93*0B
$GPRMC,225803.000,A,4353.2948,N,07917.9810,W,2.74,297.52,140416,,,A*70
$GPVTG,297.52,T,,M,2.74,N,5.08,K,A*3A
$GPGGA,225804.000,4353.2951,N,07917.9820,W,1,07,1.26,194.4,M,-35.3,M,,*50
$GPGSA,A,3,01,08,11,30,28,07,13,,,,,,1.57,1.26,0.93*0B
$GPRMC,225804.000,A,4353.2951,N,07917.9820,W,3.01,287.99,140416,,,A*79
$GPVTG,287.99,T,,M,3.01,N,5.58,K,A*3A
$GPGGA,225805.000,4353.2953,N,07917.9830,W,1,07,1.26,194.3,M,-35.3,M,,*55
$GPGSA,A,3,01,08,11,30,28,07,13,,,,,,1.57,1.26,0.93*0B
$GPRMC,225805.000,A,4353.2953,N,07917.9830,W,2.77,292.47,140416,,,A*7C
$GPVTG,292.47,T,,M,2.77,N,5.14,K,A*35
$GPGGA,225806.000,4353.2956,N,07917.9838,W,1,07,1.26,194.3,M,-35.3,M,,*5B
$GPGSA,A,3,01,08,11,30,28,07,13,,,,,,1.57,1.26,0.93*0B
$GPGSV,3,1,10,30,69,241,43,11,65,105,33,07,52,180,33,01,50,133,27*78
$GPGSV,3,2,10,28,48,302,41,08,35,055,39,51,32,217,38,13,19,301,39*77
$GPGSV,3,3,10,10,02,034,,15,02,331,15*7F
$GPRMC,225806.000,A,4353.2956,N,07917.9838,W,2.85,287.90,140416,,,A*71
$GPVTG,287.90,T,,M,2.85,N,5.28,K,A*39
$GPGGA,225807.000,4353.2958,N,07917.9848,W,1,07,1.26,194.2,M,-35.3,M,,*52
$GPGSA,A,3,01,08,11,30,28,07,13,,,,,,1.57,1.26,0.93*0B
$GPRMC,225807.000,A,4353.2958,N,07917.9848,W,2.67,283.98,140416,,,A*79
$GPVTG,283.98,T,,M,2.67,N,4.94,K,A*3F
$GPGGA,225808.000,4353.2959,N,07917.9857,W,1,07,1.26,193.9,M,-35.3,M,,*5E
$GPGSA,A,3,01,08,11,30,28,07,13,,,,,,1.57,1.26,0.93*0B
$GPRMC,225808.000,A,4353.2959,N,07917.9857,W,2.72,282.41,140416,,,A*78
$GPVTG,282.41,T,,M,2.72,N,5.04,K,A*36
$GPGGA,225809.000,4353.2961,N,07917.9867,W,1,07,1.26,193.6,M,-35.3,M,,*58
$GPGSA,A,3,01,08,11,30,28,07,13,,,,,,1.57,1.26,0.93*0B
$GPRMC,225809.000,A,4353.2961,N,07917.9867,W,2.65,283.49,140416,,,A*7E
$GPVTG,283.49,T,,M,2.65,N,4.92,K,A*37
$GPGGA,225810.000,4353.2963,N,07917.9876,W,1,07,1.26,193.4,M,-35.3,M,,*50
$GPGSA,A,3,01,08,11,30,28,07,13,,,,,,1.57,1.26,0.93*0B
$GPRMC,225810.000,A,4353.2963,N,07917.9876,W,2.60,290.32,140416,,,A*7F
$GPVTG,290.32,T,,M,2.60,N,4.83,K,A*3C
$GPGGA,225811.000,4353.2964,N,07917.9885,W,1,07,1.26,193.2,M,-35.3,M,,*5C
$GPGSA,A,3,01,08,11,30,28,07,13,,,,,,1.57,1.26,0.93*0B
$GPGSV,3,1,10,30,69,241,43,11,65,105,34,07,52,180,39,01,50,133,27*75
$GPGSV,3,2,10,28,48,302,42,08,35,055,39,51,32,217,40,13,19,301,38*7A
$GPGSV,3,3,10,10,02,034,13,15,02,331,14*7C
$GPRMC,225811.000,A,4353.2964,N,07917.9885,W,2.78,280.79,140416,,,A*72
$GPVTG,280.79,T,,M,2.78,N,5.16,K,A*36
$GPGGA,225812.000,4353.2965,N,07917.9895,W,1,07,1.26,193.0,M,-35.3,M,,*5D
$GPGSA,A,3,01,08,11,30,28,07,13,,,,,,1.57,1.26,0.93*0B
$GPRMC,225812.000,A,4353.2965,N,07917.9895,W,2.87,279.56,140416,,,A*7A
$GPVTG,279.56,T,,M,2.87,N,5.32,K,A*3B
$GPGGA,225813.000,4353.2967,N,07917.9905,W,1,07,1.26,193.1,M,-35.3,M,,*57
$GPGSA,A,3,01,08,11,30,28,07,13,,,,,,1.57,1.26,0.93*0B
$GPRMC,225813.000,A,4353.2967,N,07917.9905,W,2.73,284.82,140416,,,A*71
$GPVTG,284.82,T,,M,2.73,N,5.06,K,A*3C
$GPGGA,225814.000,4353.2969,N,07917.9915,W,1,07,1.26,193.1,M,-35.3,M,,*5F
$GPGSA,A,3,01,08,11,30,28,07,13,,,,,,1.57,1.26,0.93*0B
$GPRMC,225814.000,A,4353.2969,N,07917.9915,W,2.80,288.17,140416,,,A*75
$GPVTG,288.17,T,,M,2.80,N,5.19,K,A*3E
$GPGGA,225815.000,4353.2971,N,07917.9924,W,1,07,1.26,193.0,M,-35.3,M,,*54
$GPGSA,A,3,01,08,11,30,28,07,13,,,,,,1.57,1.26,0.93*0B
$GPRMC,225815.000,A,4353.2971,N,07917.9924,W,2.81,290.14,140416,,,A*74
$GPVTG,290.14,T,,M,2.81,N,5.20,K,A*3F
$GPGGA,225816.000,4353.2973,N,07917.9934,W,1,07,1.26,192.9,M,-35.3,M,,*5C
$GPGSA,A,3,01,08,11,30,28,07,13,,,,,,1.57,1.26,0.93*0B
$GPGSV,3,1,10,30,69,241,43,11,65,105,34,07,52,180,38,01,50,133,29*7A
$GPGSV,3,2,10,28,48,302,41,08,35,055,39,51,32,217,39,13,19,301,38*77
$GPGSV,3,3,10,10,02,034,,15,02,331,15*7F
$GPRMC,225816.000,A,4353.2973,N,07917.9934,W,2.82,282.72,140416,,,A*74
$GPVTG,282.72,T,,M,2.82,N,5.23,K,A*3C
$GPGGA,225817.000,4353.2974,N,07917.9944,W,1,07,1.26,192.9,M,-35.3,M,,*5D
$GPGSA,A,3,01,08,11,30,28,07,13,,,,,,1.57,1.26,0.93*0B
$GPRMC,225817.000,A,4353.2974,N,07917.9944,W,2.63,289.14,140416,,,A*71
$GPVTG,289.14,T,,M,2.63,N,4.87,K,A*37
$GPGGA,225818.000,4353.2977,N,07917.9953,W,1,07,1.26,192.9,M,-35.3,M,,*57
$GPGSA,A,3,01,08,11,30,28,07,13,,,,,,1.57,1.26,0.93*0B
$GPRMC,225818.000,A,4353.2977,N,07917.9953,W,2.70,286.52,140416,,,A*74
$GPVTG,286.52,T,,M,2.70,N,5.01,K,A*37
$GPGGA,225819.000,4353.2978,N,07917.9963,W,1,07,1.26,192.8,M,-35.3,M,,*5B
$GPGSA,A,3,01,08,11,30,28,07,13,,,,,,1.57,1.26,0.93*0B
$GPRMC,225819.000,A,4353.2978,N,07917.9963,W,2.82,283.70,140416,,,A*71
$GPVTG,283.70,T,,M,2.82,N,5.22,K,A*3E
$GPGGA,225820.000,4353.2980,N,07917.9973,W,1,07,1.26,192.8,M,-35.3,M,,*57
$GPGSA,A,3,01,08,11,30,28,07,13,,,,,,1.57,1.26,0.93*0B
$GPRMC,225820.000,A,4353.2980,N,07917.9973,W,2.78,284.74,140416,,,A*7B
$GPVTG,284.74,T,,M,2.78,N,5.15,K,A*3C
$GPGGA,225821.000,4353.2981,N,07917.9984,W,1,07,1.26,192.6,M,-35.3,M,,*51
$GPGSA,A,3,01,08,11,30,28,07,13,,,,,,1.57,1.26,0.93*0B
$GPGSV,3,1,10,30,69,241,43,11,65,105,34,07,52,180,38,01,50,133,29*7A
$GPGSV,3,2,10,28,48,302,39,08,35,055,39,51,32,217,42,13,19,301,40*7B
$GPGSV,3,3,10,10,02,034,,15,02,331,15*7F
$GPRMC,225821.000,A,4353.2981,N,07917.9984,W,2.77,281.08,140416,,,A*72
$GPVTG,281.08,T,,M,2.77,N,5.13,K,A*3B
$GPGGA,225822.000,4353.2981,N,07917.9995,W,1,07,1.26,192.4,M,-35.3,M,,*50
$GPGSA,A,3,01,08,11,30,28,07,13,,,,,,1.57,1.26,0.93*0B
$GPRMC,225822.000,A,4353.2981,N,07917.9995,W,2.96,271.18,140416,,,A*70
$GPVTG,271.18,T,,M,2.96,N,5.48,K,A*34
$GPGGA,225823.000,4353.2980,N,07918.0005,W,1,07,1.26,192.0,M,-35.3,M,,*52
$GPGSA,A,3,01,08,11,30,28,07,13,,,,,,1.57,1.26,0.93*0B
$GPRMC,225823.000,A,4353.2980,N,07918.0005,W,2.75,266.28,140416,,,A*7E
$GPVTG,266.28,T,,M,2.75,N,5.09,K,A*39
$GPGGA,225824.000,4353.2979,N,07918.0016,W,1,07,1.26,191.9,M,-35.3,M,,*5B
$GPGSA,A,3,01,08,11,30,28,07,13,,,,,,1.57,1.26,0.93*0B
$GPRMC,225824.000,A,4353.2979,N,07918.0016,W,2.81,258.26,140416,,,A*75
$GPVTG,258.26,T,,M,2.81,N,5.21,K,A*3B
$GPGGA,225825.000,4353.2976,N,07918.0026,W,1,07,1.26,191.8,M,-35.3,M,,*57
$GPGSA,A,3,01,08,11,30,28,07,13,,,,,,1.57,1.26,0.93*0B
$GPRMC,225825.000,A,4353.2976,N,07918.0026,W,2.71,246.05,140416,,,A*79
$GPVTG,246.05,T,,M,2.71,N,5.01,K,A*38
$GPGGA,225826.000,4353.2971,N,07918.0033,W,1,07,1.26,191.6,M,-35.3,M,,*59
$GPGSA,A,3,01,08,11,30,28,07,13,,,,,,1.57,1.26,0.93*0B
$GPGSV,3,1,10,30,69,241,44,11,65,105,35,07,52,180,39,01,50,133,44*76
$GPGSV,3,2,10,28,48,302,38,08,35,055,33,51,32,217,39,13,19,301,34*7F
$GPGSV,3,3,10,10,02,034,,15,02,331,15*7F
$GPRMC,225826.000,A,4353.2971,N,07918.0033,W,2.55,227.27,140416,,,A*78
$GPVTG,227.27,T,,M,2.55,N,4.72,K,A*3C
$GPGGA,225827.000,4353.2966,N,07918.0041,W,1,07,1.26,191.5,M,-35.3,M,,*58
$GPGSA,A,3,01,08,11,30,28,07,13,,,,,,1.57,1.26,0.93*0B
$GPRMC,225827.000,A,4353.2966,N,07918.0041,W,2.82,233.93,140416,,,A*7A
$GPVTG,233.93,T,,M,2.82,N,5.22,K,A*38
$GPGGA,225828.000,4353.2961,N,07918.0049,W,1,07,1.26,191.3,M,-35.3,M,,*5E
$GPGSA,A,3,01,08,11,30,28,07,13,,,,,,1.57,1.26,0.93*0B
$GPRMC,225828.000,A,4353.2961,N,07918.0049,W,2.96,233.68,140416,,,A*7B
$GPVTG,233.68,T,,M,2.96,N,5.48,K,A*35
$GPGGA,225829.000,4353.2956,N,07918.0059,W,1,07,1.26,191.2,M,-35.3,M,,*5B
$GPGSA,A,3,01,08,11,30,28,07,13,,,,,,1.57,1.26,0.93*0B
$GPRMC,225829.000,A,4353.2956,N,07918.0059,W,2.75,240.75,140416,,,A*7A
$GPVTG,240.75,T,,M,2.75,N,5.10,K,A*3D
$GPGGA,225830.000,4353.2951,N,07918.0068,W,1,07,1.26,191.1,M,-35.3,M,,*55
$GPGSA,A,3,01,08,11,30,28,07,13,,,,,,1.57,1.26,0.93*0B
$GPRMC,225830.000,A,4353.2951,N,07918.0068,W,2.83,240.91,140416,,,A*74
$GPVTG,240.91,T,,M,2.83,N,5.24,K,A*39
$GPGGA,225831.000,4353.2947,N,07918.0077,W,1,07,1.26,190.9,M,-35.3,M,,*54
$GPGSA,A,3,01,08,11,30,28,07,13,,,,,,1.57,1.26,0.93*0B
$GPGSV,3,1,10,30,69,241,43,11,65,105,36,07,52,180,42,01,50,133,40*7A
$GPGSV,3,2,10,28,48,302,38,08,35,055,31,51,32,217,40,13,19,301,33*74
$GPGSV,3,3,10,10,02,034,,15,02,331,18*72
$GPRMC,225831.000,A,4353.2947,N,07918.0077,W,3.04,237.27,140416,,,A*7F
$GPVTG,237.27,T,,M,3.04,N,5.63,K,A*39
$GPGGA,225832.000,4353.2942,N,07918.0086,W,1,07,1.26,190.6,M,-35.3,M,,*53
$GPGSA,A,3,01,08,11,30,28,07,13,,,,,,1.57,1.26,0.93*0B
$GPRMC,225832.000,A,4353.2942,N,07918.0086,W,3.19,236.65,140416,,,A*7C
$GPVTG,236.65,T,,M,3.19,N,5.90,K,A*3E
$GPGGA,225833.000,4353.2937,N,07918.0096,W,1,07,1.26,190.4,M,-35.3,M,,*53
$GPGSA,A,3,01,08,11,30,28,07,13,,,,,,1.57,1.26,0.93*0B
$GPRMC,225833.000,A,4353.2937,N,07918.0096,W,2.91,241.03,140416,,,A*7F
$GPVTG,241.03,T,,M,2.91,N,5.39,K,A*3C
$GPGGA,225834.000,4353.2933,N,07918.0105,W,1,07,1.26,190.2,M,-35.3,M,,*5D
$GPGSA,A,3,01,08,11,30,28,07,13,,,,,,1.57,1.26,0.93*0B
$GPRMC,225834.000,A,4353.2933,N,07918.0105,W,2.78,237.86,140416,,,A*7C
$GPVTG,237.86,T,,M,2.78,N,5.16,K,A*3A
$GPGGA,225835.000,4353.2929,N,07918.0113,W,1,07,1.26,190.1,M,-35.3,M,,*53
$GPGSA,A,3,01,08,11,30,28,07,13,,,,,,1.57,1.26,0.93*0B
$GPRMC,225835.000,A,4353.2929,N,07918.0113,W,2.82,237.57,140416,,,A*78
$GPVTG,237.57,T,,M,2.82,N,5.23,K,A*35
$GPGGA,225836.000,4353.2924,N,07918.0121,W,1,07,1.26,190.0,M,-35.3,M,,*5D
$GPGSA,A,3,01,08,11,30,28,07,13,,,,,,1.57,1.26,0.93*0B
$GPGSV,3,1,10,30,69,241,42,11,65,105,34,07,52,180,45,01,50,133,36*7F
$GPGSV,3,2,10,28,48,302,36,08,35,055,32,51,32,217,38,13,19,301,26*72
$GPGSV,3,3,10,10,02,034,20,15,02,331,24*7F
$GPRMC,225836.000,A,4353.2924,N,07918.0121,W,2.52,237.54,140416,,,A*79
$GPVTG,237.54,T,,M,2.52,N,4.68,K,A*35
$GPGGA,225837.000,4353.2920,N,07918.0130,W,1,07,1.26,189.8,M,-35.3,M,,*58
$GPGSA,A,3,01,08,11,30,28,07,13,,,,,,1.57,1.26,0.93*0B
$GPRMC,225837.000,A,4353.2920,N,07918.0130,W,2.90,236.71,140416,,,A*74
$GPVTG,236.71,T,,M,2.90,N,5.38,K,A*39
$GPGGA,225838.000,4353.2915,N,07918.0139,W,1,07,1.26,189.7,M,-35.3,M,,*57
$GPGSA,A,3,01,08,11,30,28,07,13,,,,,,1.57,1.26,0.93*0B
$GPRMC,225838.000,A,4353.2915,N,07918.0139,W,2.77,238.32,140416,,,A*74
$GPVTG,238.32,T,,M,2.77,N,5.14,K,A*37
$GPGGA,225839.000,4353.2910,N,07918.0148,W,1,07,1.26,189.5,M,-35.3,M,,*57
$GPGSA,A,3,01,08,11,30,28,07,13,,,,,,1.57,1.26,0.93*0B
$GPRMC,225839.000,A,4353.2910,N,07918.0148,W,2.81,234.51,140416,,,A*76
$GPVTG,234.51,T,,M,2.81,N,5.21,K,A*31
$GPGGA,225840.000,4353.2905,N,07918.0157,W,1,07,1.26,189.3,M,-35.3,M,,*55
$GPGSA,A,3,01,08,11,30,28,07,13,,,,,,1.57,1.26,0.93*0B
$GPRMC,225840.000,A,4353.2905,N,07918.0157,W,2.82,234.65,140416,,,A*76
$GPVTG,234.65,T,,M,2.82,N,5.23,K,A*37
$GPGGA,225841.000,4353.2900,N,07918.0166,W,1,07,1.26,189.2,M,-35.3,M,,*52
$GPGSA,A,3,01,08,11,30,28,07,13,,,,,,1.57,1.26,0.93*0B
$GPGSV,3,1,10,30,69,241,44,11,65,105,36,07,52,180,40,01,50,133,37*7F
$GPGSV,3,2,10,28,48,302,38,08,35,055,32,51,32,217,38,13,19,301,26*7C
$GPGSV,3,3,10,10,02,034,18,15,02,331,20*70
$GPRMC,225841.000,A,4353.2900,N,07918.0166,W,2.94,239.87,140416,,,A*76
$GPVTG,239.87,T,,M,2.94,N,5.44,K,A*30
$GPGGA,225842.000,4353.2895,N,07918.0176,W,1,07,1.26,189.1,M,-35.3,M,,*5E
$GPGSA,A,3,01,08,11,30,28,07,13,,,,,,1.57,1.26,0.93*0B
$GPRMC,225842.000,A,4353.2895,N,07918.0176,W,2.49,238.18,140416,,,A*7E
$GPVTG,238.18,T,,M,2.49,N,4.62,K,A*32
$GPGGA,225843.000,4353.2890,N,07918.0184,W,1,07,1.26,188.9,M,-35.3,M,,*5E
$GPGSA,A,3,01,08,11,30,28,07,13,,,,,,1.56,1.26,0.93*0A
$GPRMC,225843.000,A,4353.2890,N,07918.0184,W,2.73,233.86,140416,,,A*72
$GPVTG,233.86,T,,M,2.73,N,5.06,K,A*34
$GPGGA,225844.000,4353.2885,N,07918.0194,W,1,07,1.26,188.7,M,-35.3,M,,*52
$GPGSA,A,3,01,08,11,30,28,07,13,,,,,,1.56,1.26,0.93*0A
$GPRMC,225844.000,A,4353.2885,N,07918.0194,W,3.36,235.46,140416,,,A*7A
$GPVTG,235.46,T,,M,3.36,N,6.22,K,A*3B
$GPGGA,225845.000,4353.2881,N,07918.0204,W,1,07,1.26,188.7,M,-35.3,M,,*5D
$GPGSA,A,3,01,08,11,30,28,07,13,,,,,,1.57,1.26,0.93*0B
$GPRMC,225845.000,A,4353.2881,N,07918.0204,W,2.86,240.77,140416,,,A*7F
$GPVTG,240.77,T,,M,2.86,N,5.30,K,A*31
$GPGGA,225846.000,4353.2876,N,07918.0214,W,1,07,1.26,188.6,M,-35.3,M,,*56
$GPGSA,A,3,01,08,11,30,28,07,13,,,,,,1.56,1.26,0.93*0A
$GPGSV,3,1,10,30,69,241,42,11,65,104,35,07,52,180,43,01,50,133,39*76
$GPGSV,3,2,10,28,48,302,38,08,35,055,32,51,32,217,40,13,19,301,27*72
$GPGSV,3,3,10,10,02,034,18,15,02,331,15*76
$GPRMC,225846.000,A,4353.2876,N,07918.0214,W,2.74,236.86,140416,,,A*77
$GPVTG,236.86,T,,M,2.74,N,5.08,K,A*38
$GPGGA,225847.000,4353.2871,N,07918.0224,W,1,07,1.26,188.4,M,-35.3,M,,*51
$GPGSA,A,3,01,08,11,30,28,07,13,,,,,,1.57,1.26,0.93*0B
$GPRMC,225847.000,A,4353.2871,N,07918.0224,W,3.21,233.36,140416,,,A*7D
$GPVTG,233.36,T,,M,3.21,N,5.95,K,A*33
$GPGGA,225848.000,4353.2865,N,07918.0233,W,1,07,1.26,188.2,M,-35.3,M,,*5B
$GPGSA,A,3,01,08,11,30,28,07,13,,,,,,1.57,1.26,0.93*0B
$GPRMC,225848.000,A,4353.2865,N,07918.0233,W,3.00,230.48,140416,,,A*78
$GPVTG,230.48,T,,M,3.00,N,5.56,K,A*35
$GPGGA,225849.000,4353.2860,N,07918.0242,W,1,07,1.26,188.0,M,-35.3,M,,*5B
$GPGSA,A,3,01,08,11,30,28,07,13,,,,,,1.57,1.26,0.93*0B
$GPRMC,225849.000,A,4353.2860,N,07918.0242,W,2.76,230.98,140416,,,A*77
$GPVTG,230.98,T,,M,2.76,N,5.11,K,A*3B
$GPGGA,225850.000,4353.2855,N,07918.0251,W,1,07,1.26,187.9,M,-35.3,M,,*51
$GPGSA,A,3,01,08,11,30,28,07,13,,,,,,1.57,1.26,0.93*0B
$GPRMC,225850.000,A,4353.2855,N,07918.0251,W,2.59,233.50,140416,,,A*71
$GPVTG,233.50,T,,M,2.59,N,4.80,K,A*38
$GPGGA,225851.000,4353.2850,N,07918.0260,W,1,07,1.26,187.8,M,-35.3,M,,*56
$GPGSA,A,3,01,08,11,30,28,07,13,,,,,,1.56,1.26,0.93*0A
$GPGSV,3,1,10,30,69,241,44,11,65,104,33,07,52,180,44,01,50,133,37*7F
$GPGSV,3,2,10,28,48,302,39,08,35,055,31,51,32,217,38,13,19,301,25*7D
$GPGSV,3,3,10,10,02,034,18,15,02,331,16*75
$GPRMC,225851.000,A,4353.2850,N,07918.0260,W,2.63,238.43,140416,,,A*77
$GPVTG,238.43,T,,M,2.63,N,4.87,K,A*3F
$GPGGA,225852.000,4353.2846,N,07918.0269,W,1,07,1.26,187.7,M,-35.3,M,,*54
$GPGSA,A,3,01,08,11,30,28,07,13,,,,,,1.56,1.26,0.93*0A
$GPRMC,225852.000,A,4353.2846,N,07918.0269,W,2.62,232.72,140416,,,A*73
$GPVTG,232.72,T,,M,2.62,N,4.85,K,A*34
$GPGGA,225853.000,4353.2842,N,07918.0277,W,1,07,1.26,187.7,M,-35.3,M,,*5E
$GPGSA,A,3,01,08,11,30,28,07,13,,,,,,1.56,1.26,0.93*0A
$GPRMC,225853.000,A,4353.2842,N,07918.0277,W,2.90,229.95,140416,,,A*77
$GPVTG,229.95,T,,M,2.90,N,5.38,K,A*3D
$GPGGA,225854.000,4353.2836,N,07918.0286,W,1,07,1.25,187.7,M,-35.3,M,,*57
$GPGSA,A,3,01,08,11,30,28,07,13,,,,,,1.56,1.25,0.93*09
$GPRMC,225854.000,A,4353.2836,N,07918.0286,W,3.15,228.73,140416,,,A*78
$GPVTG,228.73,T,,M,3.15,N,5.85,K,A*3E
$GPGGA,225855.000,4353.2831,N,07918.0293,W,1,07,1.25,187.8,M,-35.3,M,,*5A
